     3.03           OBSERVATION DATA    M: Mixed            RINEX VERSION / TYPE
CONVBIN 2.4.3                           20240108 115931 UTC PGM / RUN BY / DATE 
format: u-blox UBX                                          COMMENT             
log: /home/danisimo/MonCenter_Project/MonCenter/MonCenterLibCOMMENT             
comment                                                     COMMENT             
marker_name                                                 MARKER NAME         
marker_number                                               MARKER NUMBER       
marker_type                                                 MARKER TYPE         
about_name          about_agency                            OBSERVER / AGENCY   
receiver_number     receiver_type       receiver_version    REC # / TYPE / VERS 
antenna_number      antenna_type                            ANT # / TYPE        
        1.0000        2.0000        3.0000                  APPROX POSITION XYZ 
        4.0000        5.0000        6.0000                  ANTENNA: DELTA H/E/N
G    4 C1C L1C D1C S1C                                      SYS / # / OBS TYPES 
R    4 C1C L1C D1C S1C                                      SYS / # / OBS TYPES 
     5.000                                                  INTERVAL            
  2020    07    02    08    57   50.0000000     GPS         TIME OF FIRST OBS   
  2020    07    02    12    41   45.0000000     GPS         TIME OF LAST OBS    
G L1C                                                       SYS / PHASE SHIFT   
R L1C                                                       SYS / PHASE SHIFT   
  2 R17  4 R23  3                                           GLONASS SLOT / FRQ #
 C1C    0.000 C1P    0.000 C2C    0.000 C2P    0.000        GLONASS COD/PHS/BIS 
                                                            END OF HEADER       
> 2020 07 02 08 57 50.0000000  0 19                     
G02  22022326.604     8388189.5731      -2660.039          47.891  
G06  24705174.977    13289069.5201      -4082.412          36.516  
G09  24107132.178     3412684.0291      -2211.406          38.668  
G12  24085446.146    23165681.4371      -4574.307          42.008  
G18  24443012.119     -794284.0501       2713.652          33.926  
G25  22721008.927     4956408.9401      -3666.035          43.645  
G29  20732808.073    -7178508.6271        750.654          48.977  
G31  25802934.112     7218903.7991      -3256.064          35.332  
R14  22669989.795      859618.7161      -4110.674          43.176  
G26  24220363.866    -4406515.3431       1620.576          37.645  
R07  21977054.178    -2983451.2261      -3859.912          45.918  
R23  19437622.829    -7534901.5701      -1933.086          52.391  
R24  19687109.866   -16337734.6861        974.844          52.754  
R01  21219337.873   -14204997.2811       3009.326          45.742  
R17  23297118.059    -4949260.9001       3090.996          42.219  
G05  20406054.648   -18104109.1211       -115.869          49.500  
R15  21986598.261   -10085212.2471       -820.820          44.980  
R16  24032039.860    -2732408.0761       2389.141          38.094  
R08  20023887.743   -18545224.4631       -130.156          50.984  
> 2020 07 02 09 06 30.0000000  0 19                     
G02  22290534.828     9797632.311       -2755.371          47.699  
G06  25108845.733    15410383.491       -4070.703          31.797  
G09  24339540.861     4633993.191       -2478.623          38.492  
G12  24539024.753    25549255.018       -4584.170          39.480  
G18  24175288.645    -2201190.864        2700.107          38.344  
G25  23092125.727     6906640.613       -3825.459          41.664  
G29  20670737.352    -7504695.622         505.596          49.480  
R14  23080985.141     3050446.991       -4303.691          42.523  
G26  24071364.240    -5189514.317        1391.934          36.820  
R07  22364960.687     -906969.334       -4115.498          45.820  
R23  19637835.127    -6463907.263       -2180.977          52.695  
R24  19603218.101   -16786340.873         752.236          52.805  
G13  25348428.061    -1048125.526        2986.289          33.086  
R01  20938737.412   -15704963.736        2757.988          47.305  
R17  22996526.995    -6557769.487        3097.266          44.754  
G05  20433162.829   -17961654.469        -427.471          49.813  
R15  22087820.500    -9544316.240       -1253.672          45.973  
R16  23812648.585    -3904360.548        2116.709          37.320  
R08  20058219.982   -18361375.293        -572.598          50.520  
> 2020 07 02 09 07 50.0000000  0 19                     
G02  22332700.836    10019217.881       -2783.145          46.797  
G06  25170910.958    15736519.653       -4081.729          31.039  
G09  24377688.625     4834467.322       -2531.943          37.867  
G12  24608918.249    25916547.283       -4596.875          39.742  
G18  24134318.064    -2416488.863        2683.408          38.871  
G25  23150643.845     7214154.664       -3861.094          42.492  
G29  20663451.363    -7542983.157         452.715          49.164  
R14  23145882.030     3396381.510       -4343.359          41.988  
G26  24050570.420    -5298785.854        1341.025          36.855  
R07  22426847.448     -575681.811       -4165.312          45.199  
R23  19670847.816    -6287306.920       -2232.773          52.484  
R24  19592344.329   -16844485.809         702.510          52.336  
G13  25303024.375    -1286722.229        2979.277          31.852  
R01  20897891.164   -15923317.382        2701.982          47.434  
R17  22950339.549    -6804928.871        3082.695          44.891  
G05  20440148.919   -17924943.265        -489.023          50.004  
R15  22107195.511    -9440776.818       -1333.408          45.922  
R16  23781401.684    -4071273.113        2057.373          37.938  
R08  20067396.946   -18312231.949        -654.678          50.129  
> 2020 07 02 09 08 20.0000000  0 19                     
G02  22348616.744    10102854.822       -2792.490          46.688  
G06  25194220.575    15859018.288       -4084.746          32.902  
G09  24392196.876     4910712.072       -2550.713          38.281  
G12  24635172.730    26054510.828       -4600.488          39.398  
G18  24119015.165    -2496908.143        2678.027          39.016  
G25  23172720.639     7330172.809       -3873.232          42.422  
G29  20660921.727    -7556277.737         433.828          49.199  
R14  23170363.987     3526888.631       -4356.865          41.813  
G26  24042966.872    -5338741.647        1322.959          36.953  
R07  22450240.530     -450456.897       -4182.744          45.512  
R23  19683422.861    -6220044.705       -2251.113          52.715  
R24  19588453.315   -16865292.490         684.844          52.559  
G13  25286022.314    -1376074.768        2977.520          34.180  
R01  20882784.179   -16004069.856        2681.836          47.453  
R17  22933070.308    -6897342.489        3078.301          44.965  
G05  20443004.786   -17909936.693        -511.064          49.898  
R15  22114763.619    -9400335.927       -1362.168          46.074  
R16  23769908.290    -4132669.139        2036.074          37.391  
R08  20071148.185   -18292141.191        -684.375          50.109  
> 2020 07 02 09 08 55.0000000  0 19                     
G02  22367249.685    10200773.273       -2802.686          46.500  
G06  25221436.004    16002037.272       -4087.646          32.523  
G09  24409258.093     5000365.307       -2572.002          38.051  
G12  24665825.399    26215589.412       -4603.867          38.918  
G18  24101197.725    -2590540.288        2672.471          39.129  
G25  23198562.388     7465973.333       -3886.572          42.383  
G29  20658103.901    -7571082.676         412.441          49.238  
R14  23199020.735     3679645.626       -4371.846          41.602  
G26  24034224.313    -5384679.281        1302.412          37.184  
R07  22477653.670     -303716.748       -4202.148          45.398  
R23  19698220.437    -6140889.525       -2271.768          53.250  
R24  19584037.136   -16888906.873         664.795          52.438  
G13  25266194.992    -1480260.842        2975.938          32.777  
R01  20865301.783   -16097525.904        2658.818          47.594  
R17  22912952.196    -7004999.299        3073.662          44.473  
G05  20446493.120   -17891605.123        -536.104          50.086  
R15  22123794.717    -9352075.887       -1395.059          46.371  
R16  23756648.411    -4203496.915        2011.631          37.828  
R08  20075732.933   -18267587.654        -718.281          50.043  
> 2020 07 02 09 09 15.0000000  0 19                     
G02  22377927.176    10256882.480       -2808.086          46.836  
G06  25236995.805    16083802.990       -4088.828          32.859  
G09  24419068.850     5051924.533       -2583.643          38.176  
G12  24683349.780    26307682.348       -4605.342          39.270  
G18  24091032.101    -2643960.772        2669.746          39.520  
G25  23213369.037     7543778.485       -3893.750          42.746  
G29  20656557.968    -7579209.735         400.586          49.289  
R14  23215439.662     3767164.648       -4379.854          41.602  
G26  24029290.107    -5410609.738        1290.938          37.086  
R07  22493374.222     -219564.997       -4212.764          45.523  
R23  19706736.021    -6095337.308       -2283.174          53.340  
R24  19581571.559   -16902090.151         653.760          52.566  
G13  25254869.836    -1539774.553        2975.391          34.031  
R01  20855377.513   -16150571.196        2646.016          47.523  
R17  22901468.888    -7066448.628        3071.357          43.977  
G05  20448560.325   -17880741.083        -549.951          50.246  
R15  22129051.089    -9323987.076       -1413.320          46.180  
R16  23749143.753    -4243589.732        1997.979          38.578  
R08  20078451.921   -18253027.885        -737.266          49.875  
> 2020 07 02 09 09 40.0000000  0 19                     
G02  22391300.325    10327158.552       -2813.896          47.230  
G06  25256448.784    16186031.875       -4089.434          33.637  
G09  24431393.747     5116689.414       -2597.314          38.555  
G12  24705261.181    26422826.776       -4606.025          38.234  
G18  24078338.010    -2710669.608        2667.070          39.676  
G25  23231911.691     7641223.389       -3901.738          42.246  
G29  20654686.084    -7589046.594         386.631          49.426  
R14  23236002.074     3876775.983       -4388.896          41.609  
G26  24023180.227    -5442714.227        1277.676          36.809  
R07  22513076.774     -114090.223       -4225.020          45.422  
R23  19717437.105    -6038089.061       -2296.455          53.066  
R24  19578546.023   -16918270.245         640.811          52.711  
G13  25240714.184    -1614162.897        2975.713          33.840  
R01  20843038.708   -16216529.255        2630.859          47.434  
R17  22887124.129    -7143208.904        3069.502          43.703  
G05  20451216.649   -17866782.606        -566.416          49.953  
R15  22135716.304    -9288373.084       -1435.332          45.883  
R16  23739831.933    -4293335.061        1981.826          39.398  
R08  20081947.898   -18234306.751        -760.039          49.855  
> 2020 07 02 09 11 10.0000000  0 19                     
G02  22439670.671    10581354.513       -2834.473          46.133  
G06  25326503.503    16554168.895       -4090.967          32.730  
G09  24476296.595     5352654.020       -2645.713          38.793  
G12  24784172.514    26837504.377       -4608.506          37.848  
G18  24032743.034    -2950276.678        2657.773          39.941  
G25  23298977.641     7993654.191       -3929.512          41.613  
G29  20648498.079    -7621562.796         336.406          49.395  
R14  23310374.483     4273212.291       -4420.117          41.633  
G26  24001717.646    -5555512.127        1229.414          39.383  
R07  22584479.732      268127.615       -4268.057          46.145  
R23  19756478.006    -5829246.252       -2343.955          52.648  
R24  19568155.727   -16973833.043         594.316          52.691  
G13  25189752.394    -1881979.609        2976.045          34.879  
R01  20799210.253   -16450819.815        2575.986          47.578  
R17  22835559.590    -7419136.089        3062.490          44.727  
G05  20461425.062   -17813133.703        -625.195          49.539  
R15  22160557.230    -9155626.438       -1513.848          45.859  
R16  23706934.869    -4469054.279        1923.447          37.781  
R08  20095413.725   -18162198.1531       -841.650          50.156  
> 2020 07 02 09 12 05.0000000  0 19                     
G02  22469412.124    10737642.160       -2848.760          46.133  
G06  25369335.796    16779246.918       -4093.682          33.016  
G09  24504151.068     5499030.059       -2676.836          38.781  
G12  24832419.312    27091041.755       -4611.143          38.164  
G18  24004965.672    -3096248.489        2650.137          39.734  
G25  23340200.640     8210284.322       -3947.891          40.969  
G29  20645149.121    -7639163.919         303.691          49.480  
R14  23356087.126     4516882.848       -4440.488          40.617  
G26  23989014.882    -5622261.547        1197.949          39.301  
R07  22628474.733      503631.593       -4295.635          45.801  
R23  19780736.758    -5699479.758       -2374.746          52.715  
R24  19562200.631   -17005678.691         563.750          52.785  
G13  25158614.888    -2045608.595        2973.828          34.535  
R01  20772891.520   -16591507.418        2540.029          47.816  
R17  22804114.734    -7587401.765        3056.074          44.730  
G05  20468166.569   -17777707.100        -662.881          49.738  
R15  22176395.903    -9070993.706       -1563.477          46.129  
R16  23687328.433    -4573791.083        1885.215          38.223  
R08  20104325.481   -18114478.9771       -893.350          49.875  
> 2020 07 02 11 04 05.0000000  0 21                     
G13  21644746.297     -297902.798         318.213          46.598  
G15  21547363.594    -1167330.185        1796.338          46.738  
G16  23744181.731      371456.001        -790.635          38.875  
G18  20659255.667     -550552.514         813.896          48.855  
G20  22874981.290    -1543696.126        2518.633          43.145  
G21  23739896.097    -1238629.348        2040.039          41.980  
G29  22005931.584     2167245.783       -3682.568          45.980  
G05  22795580.845     2317060.358       -3865.010          42.836  
R02  20254282.235    -1437018.855        2191.357          52.305  
R24  20557780.679     2113139.058       -3607.705          51.289  
R23  23752345.676     2997613.849       -4941.289          41.359  
R17  19281129.991     -321204.662         391.504          53.141  
R18  22409271.729    -1973770.985        3224.590          44.598  
R01  20066813.446     1639690.606       -2882.344          49.438  
R08  23385163.342     2953263.7881      -4861.895          38.633  
G26  24213730.968     1635514.249       -2819.795          38.527  
G07  25279616.862      453055.2641       -893.750          36.426  
G30  24954112.436     -424850.5841        584.023          38.301  
R16  23853729.120     1990473.5961      -3468.877          36.938  
R09  23340447.648     -426586.741         488.408          43.387  
G27  25362863.143     -782883.005        2954.766          36.352  
> 2020 07 02 11 07 15.0000000  0 23                     
G13  21635570.030     -346123.846         191.152          46.547  
G15  21484299.380    -1498733.026        1693.467          47.191  
G16  23775083.310      533847.944        -916.689          39.004  
G18  20631263.738     -697650.150         736.064          48.633  
G20  22784615.390    -2018575.207        2481.553          44.508  
G21  23666537.476    -1624124.742        2019.307          42.246  
G29  22140494.593     2874377.781       -3758.555          45.793  
G05  22936013.706     3055036.514       -3900.977          43.559  
R02  20178303.672    -1842452.174        2077.852          52.113  
R24  20687734.231     2808057.353       -3704.824          51.012  
R23  23928277.794     3938731.313       -4962.881          39.414  
R17  19269604.908     -382880.110         259.316          53.117  
R18  22295146.938    -2582974.545        3189.219          46.188  
R01  20171425.128     2198903.964       -3001.416          49.270  
R08  23558121.873     3879449.440       -4884.873          37.457  
G26  24317092.901     2178679.784       -2895.264          37.410  
G07  25313839.758      632901.274        -997.480          36.695  
G30  24934763.024     -526502.697         487.656          36.461  
R16  23978973.974     2659508.815       -3570.811          36.414  
R09  23325787.772     -504873.020         337.354          43.023  
R03  24456718.811     -101589.6081       3754.443          38.461  
G27  25256634.192    -1341111.561        2922.549          35.762  
R10  24297517.282     -186236.4061       2345.195          33.828  
> 2020 07 02 11 07 50.0000000  0 23                     
G13  21634373.364     -352414.444         167.979          46.570  
G15  21473081.734    -1557680.304        1674.521          46.988  
G16  23781263.845      566325.033        -939.473          39.441  
G18  20626406.331     -723173.124         721.914          48.484  
G20  22768107.501    -2105324.064        2474.961          44.871  
G21  23653099.168    -1694746.861        2015.684          42.332  
G29  22165570.695     3006152.358       -3771.855          46.141  
G05  22962013.797     3191666.526       -3906.943          43.172  
R02  20164742.602    -1914818.017        2056.953          52.355  
R24  20712038.214     2938020.803       -3722.041          51.074  
R23  23960757.221     4112480.892       -4966.113          39.082  
R17  19267986.435     -391537.695         235.059          53.184  
R18  22274254.717    -2694490.918        3182.627          46.203  
R01  20191145.462     2304316.628       -3022.500          49.238  
R08  23590060.832     4050471.304       -4888.291          39.047  
G26  24336417.324     2280237.464       -2908.359          36.184  
G07  25320543.416      668132.492       -1016.191          36.426  
G30  24931572.863     -543267.181         469.922          37.277  
R16  24002427.573     2784793.071       -3588.623          35.852  
R09  23323666.401     -516200.210         309.619          43.480  
R03  24432173.318     -232988.223        3753.477          38.047  
G27  25237187.583    -1443305.102        2916.660          35.691  
R10  24282172.241     -268031.172        2328.281          34.770  
> 2020 07 02 11 10 25.0000000  0 23                     
G13  21630992.401     -370182.633          61.709          46.875  
G15  21424992.790    -1810388.396        1586.318          47.148  
G16  23810510.462      720022.479       -1043.096          38.902  
G18  20606096.249     -829903.851         655.439          48.449  
G20  22695597.763    -2486356.614        2441.719          44.809  
G21  23593937.363    -2005642.454        1996.045          41.590  
G29  22277728.602     3595544.079       -3832.471          45.918  
G05  23077682.286     3799502.296       -3935.547          43.133  
R02  20106400.818    -2226141.791        1960.254          52.844  
R24  20821070.961     3521069.632       -3800.459          50.344  
R23  24104905.931     4883565.989       -4982.666          40.246  
R17  19262799.323     -419296.575         123.340          53.066  
R18  22182335.940    -3185167.736        3148.594          46.051  
R01  20280175.444     2780230.604       -3117.383          49.063  
R08  23731804.239     4809503.104       -4904.863          40.066  
G26  24423100.391     2735747.688       -2968.291          35.555  
G07  25351787.874      832328.266       -1102.002          35.313  
G30  24918926.236     -609739.263         388.018          37.926  
R16  24107731.523     3347309.986       -3668.682          37.406  
R09  23316520.241     -554355.775         183.018          43.309  
R03  24323621.149     -814076.729        3744.395          40.902  
G27  25151614.699    -1892979.667        2885.586          33.566  
R10  24215644.751     -622665.220        2247.559          36.344  
> 2020 07 02 11 14 20.0000000  0 23                     
G13  21332122.086     -365335.857        -102.891          47.246  
G15  21057371.601    -2166831.932        1446.709          47.715  
G16  23560910.051      983779.399       -1201.035          38.879  
G18  20279332.633     -971638.623         550.566          48.598  
G20  22287825.752    -3053789.435        2387.119          45.113  
G21  23205634.874    -2470768.218        1962.168          43.887  
G29  22151350.949     4506846.770       -3922.256          45.414  
G05  22954840.152     4729388.486       -3977.656          41.383  
R02  19723621.619    -2668971.933        1808.066          52.801  
R24  20690895.373     4428082.628       -3917.910          50.738  
R23  24024538.604     6057339.187       -5006.045          38.793  
R17  18961414.658     -427815.546         -51.152          53.027  
R18  21745209.486    -3918263.284        3089.570          47.258  
R01  20120540.293     3529463.318       -3257.705          48.090  
R08  23647771.407     5964883.584       -4926.992          36.551  
G26  24258046.599     3443802.857       -3056.553          36.664  
G07  25104225.387     1106802.849       -1233.545          35.238  
G30  24604662.159     -685789.324         259.072          37.012  
R16  23971928.781     4223303.086       -3785.010          39.285  
R09  23012988.431     -574330.043         -13.086          43.957  
R03  23859872.487    -1691753.6621       3724.404          40.711  
G27  24723961.602    -2564902.418        2831.992          34.813  
R10  23819636.717    -1135547.2021       2116.309          33.801  
> 2020 07 02 11 14 35.0000000  0 23                     
G13  21332431.443     -363710.912        -113.613          47.180  
G15  21053254.972    -2188462.586        1437.480          47.707  
G16  23564353.311     1001872.690       -1211.172          38.930  
G18  20277771.048     -979844.462         543.613          48.738  
G20  22281017.497    -3089568.685        2383.359          45.023  
G21  23200037.612    -2500183.526        1959.795          44.125  
G29  22162554.931     4565723.936       -3928.008          45.227  
G05  22966198.464     4789073.607       -3980.430          41.535  
R02  19718553.675    -2696016.657        1798.125          52.887  
R24  20701895.885     4486907.915       -3925.391          50.516  
R23  24038577.409     6132440.361       -5007.529          38.258  
R17  18961574.554     -426961.055         -62.568          53.059  
R18  21736533.465    -3964575.443        3085.420          47.180  
R01  20129695.725     3578396.430       -3266.562          48.461  
R08  23661575.157     6038798.510       -4928.271          37.117  
G26  24266778.845     3489693.306       -3062.031          37.066  
G07  25107759.771     1125371.180       -1242.139          34.500  
G30  24603934.554     -689610.258         250.586          36.352  
R16  23982566.852     4280133.719       -3792.344          38.973  
R09  23013044.027     -574036.072         -25.869          44.609  
R03  23849438.495    -1747607.498        3722.744          41.203  
G27  24715882.675    -2607354.959        2828.330          34.090  
R10  23813693.871    -1167224.961        2107.549          34.016  
> 2020 07 02 11 15 45.0000000  0 23                     
G13  21334276.682     -354014.813        -163.232          47.148  
G15  21034393.032    -2287584.574        1394.639          47.875  
G16  23580801.869     1088310.569       -1258.252          38.727  
G18  20270743.775    -1016771.931         511.514          48.633  
G20  22249383.428    -3255808.229        2366.240          44.602  
G21  23174003.195    -2636990.339        1948.916          43.734  
G29  22215052.219     4841597.703       -3953.984          45.332  
G05  23019300.227     5068125.383       -3992.510          41.840  
R02  19695272.676    -2820248.902        1751.514          52.867  
R24  20753506.649     4762896.395       -3959.805          50.004  
R23  24104145.765     6483190.432       -5013.887          39.602  
R17  18962741.695     -420716.528        -115.674          53.324  
R18  21696199.101    -4179879.824        3066.113          46.508  
R01  20172739.723     3808491.495       -3307.295          48.617  
R08  23726036.541     6383984.4731      -4934.102          35.723  
G26  24307736.792     3704938.048       -3087.568          37.828  
G07  25124568.414     1213699.173       -1281.387          36.066  
G30  24600858.901     -705767.511         211.221          35.625  
R16  24032482.013     4546768.067       -3825.518          38.305  
R09  23013771.806     -570144.202         -85.107          43.379  
R03  23800806.257    -2007944.390        3715.332          41.270  
G27  24678324.344    -2804724.727        2810.801          34.578  
R10  23786290.153    -1313309.0121       2066.201          33.320  
> 2020 07 02 12 25 50.0000000  0 21                     
G13  22114884.845      286072.9731      -3028.262          43.340  
G15  20551922.886      151647.7151      -1604.629          48.418  
G18  20202652.642      168143.0581      -1773.857          48.855  
G21  21475828.311      -70951.9941        778.965          48.133  
G27  22579889.453      -72866.5591        786.396          42.508  
G10  22853465.782     -208503.2641       2249.941          43.719  
G20  20362679.009      -78541.0121        857.080          48.258  
R02  18992453.692      107240.4441      -1369.727          52.688  
R11  23431754.289     -196443.1391       2129.121          43.180  
R01  22931802.794      454554.4961      -4759.756          42.668  
R03  20760872.945     -190931.9381       2376.006          50.273  
G29  25256167.870      439368.7621      -4728.643          34.391  
R10  22881693.132       81022.5921      -1364.922          36.762  
R17  19849437.619      342964.3781      -3486.523          52.711  
R18  19526184.586      -76935.4031        681.611          51.848  
R09  23931475.895      302039.4201      -3449.746          42.563  
G30  24915912.566      211727.8781      -2346.182          35.652  
R24  23951459.239      487289.7471      -5277.441          39.281  
G16  25048274.317      302826.8221      -3520.859          37.211  
G24  24471332.322     -176536.0481       2811.562          35.770  
G08  24677705.943     -144365.6761       2263.672          33.641  
> 2020 07 02 12 28 55.0000000  0 21                     
G13  22222340.128      850751.132       -3096.113          44.445  
G15  20609749.923      455531.179       -1700.488          48.258  
G18  20266009.758      501089.708       -1845.732          48.238  
G21  21448731.508     -213344.385         739.814          47.844  
G27  22553435.795     -211877.742         695.859          42.613  
G10  22774068.722     -625740.405        2240.039          45.188  
G20  20333012.103     -234440.229         807.861          48.059  
R02  19041258.304      367667.678       -1465.830          53.453  
R11  23358978.243     -585315.891        2053.457          42.070  
R01  23095949.837     1332025.762       -4746.621          41.473  
R03  20679395.225     -627090.879        2318.184          50.820  
G29  25421618.916     1308830.6041      -4691.055          30.469  
R10  22930988.165      343815.673       -1496.221          37.262  
R17  19971298.493      995063.104       -3583.213          53.082  
R18  19504265.210     -193947.151         562.432          52.406  
R09  24051985.651      945555.447       -3526.885          42.695  
G30  24999365.423      650271.886       -2414.727          36.891  
R24  24133406.447     1460229.048       -5260.967          41.020  
G16  25172340.095      954811.425       -3547.109          34.578  
G24  24371811.130     -699523.490        2821.113          35.316  
G08  24598334.082     -561450.246        2224.590          31.957  
> 2020 07 02 12 30 35.0000000  0 21                     
G13  22281727.127     1162830.557       -3144.053          44.719  
G15  20642727.781      628831.396       -1764.092          48.535  
G18  20301631.935      688286.507       -1896.885          47.969  
G21  21434991.189     -285547.941         705.391          47.891  
G27  22540797.510     -278288.900         633.564          43.051  
G10  22731625.814     -848773.300        2221.670          45.160  
G20  20318026.850     -313185.505         768.252          47.730  
R02  19069339.630      517512.927       -1529.580          53.227  
R11  23321083.071     -787816.152        1997.676          42.098  
R01  23184800.099     1806972.634       -4751.045          39.922  
R03  20636519.691     -856606.446        2273.311          51.043  
G29  25510806.159     1777526.562       -4681.436          26.027  
R10  22959851.488      497663.550       -1579.258          37.367  
R17  20038867.900     1356641.327       -3646.846          52.691  
R18  19494473.474     -246208.650         484.082          51.902  
R09  24118537.291     1300945.387       -3579.277          40.164  
G30  25045790.471      894249.580       -2463.457          36.734  
R24  24231819.707     1986506.101       -5263.389          39.773  
G16  25240092.608     1310859.773       -3572.393          33.344  
G24  24318218.353     -981148.586        2812.158          35.066  
G08  24556349.224     -782085.485        2189.268          32.973  
> 2020 07 02 12 32 30.0000000  0 20                     
G13  22351107.815     1527434.209       -3196.553          43.461  
G15  20682113.184      835802.541       -1835.059          48.625  
G18  20343772.116      909730.626       -1954.072          48.676  
G21  21419979.046     -364442.554         666.709          48.746  
G27  22527708.782     -347072.373         562.725          42.867  
G10  22683227.251    -1103104.452        2201.455          45.266  
G20  20301701.404     -398974.274         723.828          47.809  
R02  19103073.466      697526.331       -1600.684          53.094  
R11  23278786.710    -1013850.170        1933.311          43.090  
R01  23287038.674     2353493.748       -4753.535          39.648  
R03  20588229.896    -1115105.500        2222.383          50.355  
R10  22994935.867      684675.644       -1672.686          38.945  
R17  20118002.002     1780106.428       -3717.314          52.020  
R18  19485013.223     -296714.100         394.414          51.992  
R09  24196244.454     1715881.665       -3636.465          42.262  
G30  25100291.951     1180650.847       -2517.119          35.945  
R24  24345014.104     2591796.255       -5263.359          36.473  
G16  25318560.879     1723194.135       -3598.369          33.906  
G24  24256786.658    -1303972.050        2801.963          35.422  
G08  24508877.512    -1031554.649        2149.238          35.652  
> 2020 07 02 12 32 45.0000000  0 20                     
G13  22360242.236     1575436.867       -3203.555          43.328  
G15  20687364.967      863402.032       -1844.551          48.570  
G18  20349360.863      939101.939       -1961.816          48.297  
G21  21418084.057     -374401.006         661.309          48.773  
G27  22526116.973     -355439.535         553.164          43.086  
G10  22676947.808    -1136103.045        2198.486          45.285  
G20  20299644.407     -409783.766         717.666          48.035  
R02  19107586.895      721610.373       -1610.176          52.922  
R11  23273371.785    -1042780.622        1924.434          42.730  
R01  23300378.929     2424801.066       -4754.014          40.012  
R03  20582011.930    -1148386.672        2215.361          50.258  
R10  22999660.653      709862.609       -1685.127          38.961  
R17  20128436.307     1835938.966       -3726.709          52.043  
R18  19483923.055     -302536.768         382.354          51.984  
R09  24206468.519     1770487.173       -3643.975          40.875  
G30  25107487.321     1218464.099       -2524.307          35.547  
R24  24359778.734     2670747.430       -5263.438          32.344  
G16  25328838.028     1777197.177       -3601.924          31.441  
G24  24248791.475    -1345985.884        2800.088          34.934  
G08  24502751.613    -1063748.634        2143.506          35.684  
> 2020 07 02 12 33 55.0000000  0 20                     
G13  22403140.071     1800864.584       -3236.582          42.891  
G15  20712236.448      994103.192       -1889.111          48.484  
G18  20375739.921     1077725.470       -1998.232          48.238  
G21  21409449.131     -419776.694         635.654          48.641  
G27  22519053.963     -392557.286         507.920          43.531  
G10  22647761.603    -1289480.466        2184.150          45.484  
G20  20290281.510     -458986.828         688.662          48.117  
R02  19129005.991      835907.307       -1654.775          52.824  
R11  23248442.038    -1176000.988        1882.373          43.238  
R01  23362652.753     2757693.658       -4756.660          42.148  
R03  20553264.232    -1302281.065        2182.158          50.996  
R10  23022177.175      829888.757       -1743.438          37.410  
R17  20177478.295     2098370.836       -3770.615          52.293  
R18  19479286.288     -327284.605         325.400          51.668  
R09  24254474.644     2026835.125       -3679.492          43.375  
G30  25141343.693     1396379.893       -2558.242          35.059  
R24  24428687.410     3039243.4601      -5264.590          28.992  
G16  25376933.271     2029935.149       -3618.643          29.344  
G24  24211554.228    -1541669.542        2791.152          35.000  
G08  24474380.107    -1212840.155        2116.719          36.656  
> 2020 07 02 12 34 05.0000000  0 20                     
G13  22409303.732     1833256.285       -3241.396          42.918  
G15  20715837.911     1013028.704       -1895.635          48.449  
G18  20379548.169     1097736.736       -2003.652          48.398  
G21  21408243.478     -426112.051         631.729          48.563  
G27  22518094.061     -397601.087         501.260          43.430  
G10  22643607.928    -1311309.491        2181.875          45.664  
G20  20288975.902     -465849.939         684.277          48.191  
R02  19132113.613      852489.281       -1661.318          52.984  
R11  23244926.604    -1194791.537        1876.113          42.938  
R01  23371552.730     2805264.287       -4757.275          41.551  
R03  20549192.712    -1324075.875        2177.168          51.184  
R10  23025456.594      847367.886       -1751.953          37.371  
R17  20184530.661     2136111.340       -3777.070          52.199  
R18  19478685.180     -330494.262         316.982          51.820  
R09  24261370.586     2063657.825       -3684.697          41.336  
G30  25146216.910     1421989.787       -2563.359          35.266  
R24  24438522.684     3091891.407       -5265.020          30.348  
G16  25383816.388     2066135.131       -3621.191          28.047  
G24  24206244.406    -1569572.734        2789.668          35.699  
G08  24470356.157    -1233984.701        2112.598          36.719  
> 2020 07 02 12 36 05.0000000  0 20                     
G13  22483937.162     2225458.203       -3294.697          42.219  
G15  20759969.093     1244940.629       -1969.014          48.527  
G18  20425992.272     1341804.009       -2063.691          47.906  
G21  21394304.366     -499360.169         589.277          48.035  
G27  22507520.241     -453168.513         425.234          44.289  
G10  22594046.832    -1571749.983        2158.955          45.176  
G20  20273900.467     -545067.596         636.289          47.336  
R02  19170303.379     1056277.436       -1734.600          53.094  
R11  23203602.621    -1415621.646        1804.512          43.879  
R01  23478364.362     3376237.782       -4758.545          42.551  
R03  20501012.992    -1581989.077        2121.611          51.102  
R10  23065993.049     1063457.836       -1848.906          38.137  
R17  20270044.022     2593706.957       -3848.838          52.305  
R18  19472645.939     -362732.430         220.635          51.918  
R09  24344819.220     2509273.769       -3741.543          37.625  
G30  25205387.545     1732931.299       -2618.428          35.602  
G16  25466799.136     2502207.1931      -3646.309          27.926  
G24  24142708.687    -1903453.946        2774.980          36.438  
R19  22398443.886     -321401.1511       3323.252          36.336  
G08  24422632.812    -1484773.869        2067.295          37.309  
> 2020 07 02 12 36 20.0000000  0 20                     
G13  22493349.513     2274924.695       -3300.723          42.031  
G15  20765602.163     1274541.914       -1977.627          48.453  
G18  20431893.360     1372813.222       -2070.654          47.984  
G21  21392628.744     -508161.894         584.404          47.723  
G27  22506319.876     -459477.143         416.152          44.375  
G10  22587887.777    -1604116.020        2156.543          45.285  
G20  20272092.660     -554569.450         630.742          47.547  
R02  19175192.197     1082362.455       -1743.105          53.258  
R11  23198549.823    -1442623.062        1795.889          44.172  
R01  23491716.308     3447612.936       -4758.125          42.578  
R03  20495076.987    -1613763.777        2115.186          50.996  
R10  23071213.735     1091280.747       -1860.508          38.344  
R17  20280844.502     2651503.932       -3857.168          52.258  
R18  19472042.720     -365952.536         209.023          51.984  
R09  24355339.625     2565445.962       -3748.037          36.738  
G30  25212870.146     1772257.163       -2624.814          35.492  
G16  25477207.998     2556918.920       -3648.672          28.602  
G24  24134790.598    -1945067.779        2773.613          36.570  
R19  22389129.972     -371221.930        3319.639          36.176  
G08  24416739.542    -1515744.160        2062.119          37.199  
> 2020 07 02 12 36 40.0000000  0 20                     
G13  22505928.275     2341027.118       -3309.248          42.406  
G15  20773152.104     1314217.179       -1989.580          48.250  
G18  20439793.667     1414327.920       -2080.508          48.348  
G21  21390418.116     -519777.941         577.432          47.828  
G27  22504760.297     -467671.190         403.584          44.238  
G10  22579687.309    -1647208.347        2152.852          45.098  
G20  20269707.686     -567103.345         622.891          47.793  
R02  19181748.157     1117348.896       -1755.059          53.367  
R11  23191848.573    -1478417.905        1783.965          43.598  
R01  23509517.625     3542776.082       -4758.057          42.363  
R03  20487192.437    -1655972.150        2105.947          51.383  
R10  23078224.499     1128653.209       -1876.318          38.738  
R17  20295283.458     2728767.470       -3868.828          52.309  
R18  19471290.493     -369968.592         192.979          51.941  
R09  24369392.093     2640498.333       -3756.982          37.836  
G30  25222877.165     1824845.001       -2633.721          35.563  
G16  25491107.882     2629932.115       -3652.402          28.277  
G24  24124239.150    -2000512.539        2771.025          36.898  
R19  22376728.643     -437558.067        3314.219          36.184  
G08  24408906.419    -1556909.390        2054.541          37.371  
> 2020 07 02 12 36 55.0000000  0 20                     
G13  22515384.356     2390717.404       -3315.986          42.578  
G15  20778844.365     1344132.016       -1998.887          48.176  
G18  20445743.075     1445594.158       -2088.223          48.418  
G21  21388778.371     -528396.615         571.807          48.133  
G27  22503622.543     -473649.947         393.721          44.203  
G10  22573547.154    -1679477.130        2149.678          45.258  
G20  20267938.618     -576398.724         616.582          47.883  
R02  19186695.015     1143746.573       -1764.463          53.266  
R11  23186854.373    -1505104.722        1774.521          43.809  
R01  23522870.008     3614148.574       -4758.398          41.582  
R03  20481301.261    -1687506.149        2098.682          51.418  
R10  23083522.368     1156892.667       -1888.672          38.707  
R17  20306140.547     2786868.837       -3877.871          52.086  
R18  19470765.905     -372768.695         180.576          51.887  
R09  24379955.635     2696907.676       -3764.053          38.023  
G30  25230404.980     1864404.139       -2640.742          35.973  
G16  25501531.892     2684743.355       -3655.732          29.004  
G24  24116332.962    -2042061.497        2768.721          37.547  
R19  22367442.545     -487237.115        3309.629          36.234  
G08  24403049.759    -1587682.692        2048.535          37.004  
> 2020 07 02 12 38 05.0000000  0 20                     
G13  22559765.059     2623933.294       -3346.973          43.145  
G15  20805760.297     1485575.041       -2041.963          48.168  
G18  20473798.767     1593028.925       -2123.916          47.883  
G21  21381336.883     -567501.324         545.654          48.527  
G27  22498682.578     -499603.781         348.086          43.488  
G10  22545010.987    -1829436.851        2135.010          45.320  
G20  20259920.871     -618531.104         587.373          47.953  
R02  19210124.305     1268772.866       -1807.393          53.051  
R11  23163900.723    -1627769.944        1730.439          44.500  
R01  23585186.166     3947267.966       -4759.180          40.805  
R03  20454080.457    -1833220.715        2064.805          52.070  
R10  23108702.282     1291103.913       -1945.537          38.039  
R17  20357142.805     3059792.928       -3919.561          51.504  
R18  19468778.639     -383373.461         122.773          51.754  
R09  24429516.627     2961550.335       -3796.523          36.699  
G30  25265798.471     2050398.029       -2673.096          35.340  
G16  25550326.261     2941150.2111      -3669.941          32.590  
G24  24079522.269    -2235503.216        2758.174          38.148  
R19  22324270.706     -718176.239        3288.633          35.652  
G08  24375951.037    -1730089.347        2020.420          37.719  
> 2020 07 02 12 39 05.0000000  0 20                     
G13  22598136.029     2825575.263       -3374.375          42.719  
G15  20829291.950     1609233.192       -2079.824          48.582  
G18  20498230.119     1721417.874       -2155.635          47.531  
G21  21375242.150     -599526.814         521.836          48.238  
G27  22494940.920     -519268.972         307.500          43.891  
G10  22520713.845    -1957122.552        2121.084          46.348  
G20  20253364.807     -652985.221         561.094          47.891  
R02  19230660.105     1378353.962       -1845.186          53.051  
R11  23144691.663    -1730410.003        1690.967          45.250  
R01  23638612.590     4232866.843       -4760.879          39.641  
R03  20431108.258    -1956194.064        2034.316          52.094  
R10  23130879.380     1409331.127       -1995.205          38.789  
R17  20401296.637     3296067.881       -3956.123          51.316  
R18  19467686.901     -389201.892          71.641          51.934  
R09  24472339.862     3190214.288       -3825.254          37.336  
G30  25296482.532     2211643.375       -2701.729          36.473  
G16  25592303.283     3161739.979       -3682.939          33.711  
G24  24048092.001    -2400672.750        2747.334          38.051  
R19  22287494.861     -914901.241        3268.760          36.027  
G08  24353029.094    -1850538.943        1994.639          37.328  
> 2020 07 02 12 41 45.0000000  0 20                     
G13  22701886.944     3370791.649       -3439.473          42.305  
G15  20894061.574     1949602.278       -2173.398          47.809  
G18  20565067.297     2072649.769       -2233.613          47.469  
G21  21360251.226     -678310.329         463.740          48.520  
G27  22487154.965     -560190.623         204.951          45.379  
G10  22456624.360    -2293907.291        2089.492          46.145  
G20  20237277.451     -737525.174         496.562          47.656  
R02  19287403.205     1681144.831       -1938.320          53.234  
R11  23095588.775    -1992803.163        1589.551          44.668  
R01  23781083.532     4994437.639       -4757.568          38.316  
R03  20371450.273    -2275544.362        1958.379          52.246  
R10  23192663.865     1738679.359       -2120.215          38.473  
R17  20520939.640     3936305.141       -4045.312          51.070  
R18  19467515.540     -390117.722         -59.316          51.867  
R09  24587989.767     3807784.305       -3892.598          36.836  
G30  25379809.469     2649531.217       -2770.547          36.242  
G16  25704867.553     3753253.046       -3709.502          34.758  
G24  23964825.408    -2838235.564        2722.627          36.910  
R19  22190465.996    -1433941.143        3219.541          36.559  
G08  24293286.302    -2164493.079        1930.449          36.848  
