     2.11           OBSERVATION DATA    M (MIXED)           RINEX VERSION / TYPE
teqc  2019Feb25     RGS-CENTRE          20220111 11:14:34UTCPGM / RUN BY / DATE
Linux 2.4.21-27.ELsmp|Opteron|gcc -static|Linux 64|=+       COMMENT
BIT 2 OF LLI FLAGS DATA COLLECTED UNDER A/S CONDITION       COMMENT
NSK1                                                        MARKER NAME
                                                            MARKER NUMBER
Center of Geodesy   Rosreestr                               OBSERVER / AGENCY
AG4QU9R2N0G         TPS ODYSSEY_E       2.7.1b21 May,15,2019REC # / TYPE / VERS
05677               JAV_RINGANT_G3T JAVC                    ANT # / TYPE
   447669.4968  3638117.4139  5202279.7369                  APPROX POSITION XYZ
        0.1470        0.0000        0.0000                  ANTENNA: DELTA H/E/N
     1     1                                                WAVELENGTH FACT L1/2
     7    L1    L2    C1    P1    P2    S1    S2            # / TYPES OF OBSERV
    30.0000                                                 INTERVAL
    18                                                      LEAP SECONDS
 SNR is mapped to RINEX snr flag value [0-9]                COMMENT
  L1 & L2: min(max(int(snr_dBHz/6), 0), 9)                  COMMENT
pseudorange smoothing corrections not applied               COMMENT
  2022     1     4     8     1   30.0000000     GPS         TIME OF FIRST OBS
                                                            END OF HEADER
 22  1  4  8  1 30.0000000  0 13R09G16G09G04R08G26G07G27R06R17R18G20
                                G08
 104372363.522 8  81178536.757 8  19545590.959    19545590.969    19545592.879
        53.000          49.000
 108103722.970 8  84236681.19046  20571454.185    20571453.405    20571455.089
        49.000          41.0004
 109741272.962 8  85512694.04048  20883069.400    20883069.083    20883074.671
        51.000          52.0004
 110015364.120 8                  20935227.393
        49.000
 114259481.081 7  88868512.035 7  21337151.183    21337152.202    21337155.751
        43.000          44.000
 119198742.517 7  92882150.61344  22682766.569    22682765.967    22682769.017
        43.000          29.0004
 122417928.192 7  95390612.94145  23295358.379    23295358.215    23295372.763
        42.000          31.0004
 120546252.000 6  93932159.03946  22939188.464    22939188.020    22939192.946
        41.000          37.0004
 118892316.364 6  92471841.097    22280370.060    22280371.010    22280412.003
        36.000           1.000
 119720751.119 7  93116171.942 6  22372682.337    22372683.207    22372687.782
        43.000          40.000
 122072073.585 6  94944977.483 6  22868211.815    22868212.017    22868218.245
        41.000          37.000
 128365635.333 6 100025177.35142  24427166.493    24427164.730    24427167.914
        36.000          15.0004
 129763834.649 5                  24693237.010
        35.000
 22  1  4  8  2  0.0000000  0 14R09G16G09G04R08G26G07G27R06R17R18G20
                                G08R10
 104336703.884 8  81150801.475 8  19538913.112    19538913.238    19538914.872
        53.000          49.000
 108127215.126 8  84254986.75146  20575924.713    20575923.902    20575925.390
        49.000          41.0004
 109716629.234 8  85493491.12748  20878379.827    20878379.559    20878382.994
        51.000          52.0004
 110065265.994 8  85765156.69946  20944723.480    20944723.087    20944725.807
        48.000          39.0004
 114172745.499 7  88801051.049 7  21320953.534    21320954.767    21320957.969
        42.000          44.000
 119289268.614 7  92952690.41144  22699992.888    22699992.082    22699997.128
        42.000          29.0004
 122330650.100 7  95322604.09746  23278749.822    23278749.526    23278751.271
        42.000          38.0004
 120450426.104 6  93857489.67946  22920952.956    22920952.811    22920957.627
        41.000          36.0004
 119020605.776 6  92571621.203 3  22304413.152    22304412.272    22304420.652
        36.000          20.000
 119725961.361 7  93120224.368 6  22373656.639    22373656.165    22373661.427
        42.000          40.000
 121979818.451 6  94873223.498 6  22850928.765    22850929.040    22850935.065
        41.000          37.000
 128312934.011 5  99984111.38842  24417136.131    24417136.301    24417139.147
        35.000          15.0004
 129647331.558 5 101023913.63843  24671066.586    24671067.332    24671072.323
        35.000          22.0004
 120036789.816 7                  22518595.353
        42.000
 22  1  4  8  2 30.0000000  0 14R09G16G09G04R08G26G07G27R06R17R18G20
                                G08R10
 104301597.946 8  81123496.857 7  19532338.584    19532338.754    19532340.872
        53.000          47.000
 108151336.736 8  84273782.80046  20580515.049    20580514.129    20580515.493
        50.000          41.0004
 109692565.259 8  85474739.97148  20873800.537    20873800.269    20873803.674
        50.000          52.0004
 110115694.271 8  85804451.45146  20954319.612    20954319.488    20954321.954
        49.000          39.0004
 114086613.760 7  88734059.719 7  21304869.649    21304870.357    21304873.495
        43.000          43.000
 119380084.583 7  93023456.08244  22717273.957    22717273.902    22717279.186
        42.000          29.0004
 122243515.670 7  95254707.16746  23262168.026    23262168.191    23262170.165
        43.000          38.0004
 120354980.179 7  93783116.39046  22902789.738    22902789.867    22902794.630
        42.000          37.0004
 119149197.490 6  92671637.089 3  22328510.460    22328510.072    22328517.960
        36.000          20.000
 119732014.821 7  93124932.613 6  22374788.041    22374788.551    22374792.707
        43.000          40.000
 121888118.822 6  94801901.631 6  22833749.895    22833750.455    22833756.797
        41.000          37.000
 128260759.271 5  99943455.72742  24407207.572    24407207.921    24407210.356
        35.000          15.0004
 129530897.829 6 100933186.10243  24648912.159    24648910.901    24648916.750
        36.000          23.0004
 119926679.217 7  93276333.321    22497940.480    22497939.791    22497947.980
        42.000           1.000
 22  1  4  8  3  0.0000000  0 14R09G16G09G04R08G26G07G27R06R17R18G20
                                G08R10
 104266999.873 8  81096587.238 8  19525859.479    19525859.647    19525861.572
        53.000          48.000
 108176040.083 8  84293032.14846  20585215.746    20585215.052    20585216.267
        48.000          41.0004
 109669036.373 8  85456405.76548  20869323.126    20869322.894    20869326.268
        50.000          52.0004
 110166602.003 8  85844119.79646  20964006.967    20964006.773    20964009.493
        49.000          39.0004
 114001042.626 7  88667504.410 7  21288889.803    21288890.473    21288893.183
        43.000          44.000
 119471142.141 7  93094410.00244  22734601.413    22734601.584    22734606.307
        42.000          29.0004
 122156480.162 7  95186887.33146  23245606.727    23245606.543    23245608.025
        43.000          39.0004
 120259871.661 6  93709006.01746  22884691.357    22884690.906    22884695.776
        41.000          36.0004
 119278041.474 6  92771849.035 3  22352657.020    22352655.637    22352664.520
        36.000          20.000
 119738864.600 7  93130260.254 6  22376068.738    22376068.431    22376072.632
        42.000          40.000
 121796932.469 7  94730978.987 6  22816669.159    22816668.828    22816673.909
        42.000          37.000
 128209066.598 6  99903175.74142  24397372.946    24397370.149    24397375.304
        36.000          15.0004
 129414490.858 6 100842479.42944  24626760.370    24626759.560    24626764.969
        36.000          24.0004
 119816775.654 7  93190853.273 3  22477323.098    22477321.791    22477336.580
        43.000          20.000
 22  1  4  8  3 30.0000000  0 14R09G16G09G04R08G26G07G27R06R17R18G20
                                G08R10
 104232910.195 8  81070073.037 8  19519475.815    19519475.805    19519477.894
        53.000          50.000
 108201325.069 8  84312734.72646  20590027.660    20590026.653    20590027.933
        49.000          41.0004
 109646044.653 8  85438490.13448  20864947.924    20864947.734    20864951.110
        50.000          52.0004
 110217989.054 8  85884161.63746  20973785.530    20973785.381    20973788.012
        48.000          38.0004
 113916036.623 7  88601388.654 7  21273015.439    21273015.804    21273019.470
        42.000          45.000
 119562439.933 7  93165551.11444  22751974.712    22751975.176    22751980.126
        42.000          29.0004
 122069545.551 7  95119146.11946  23229064.059    23229063.269    23229064.987
        43.000          39.0004
 120165104.700 6  93635161.77546  22866657.762    22866657.211    22866662.112
        41.000          36.0004
 119407134.697 5  92872255.014 3  22376847.212    22376847.368    22376854.712
        35.000          20.000
 119746511.399 7  93136207.761 6  22377497.427    22377497.287    22377501.953
        43.000          40.000
 121706264.296 6  94660459.383 6  22799682.877    22799682.443    22799689.673
        41.000          37.000
 128157858.890 5  99863273.62742  24387626.804    24387626.272    24387628.878
        35.000          15.0004
 129298114.217 5 100751796.40943  24604612.958    24604613.444    24604619.015
        35.000          23.0004
 119707081.657 7  93105535.667 3  22456744.519    22456744.149    22456757.907
        43.000          20.000
 22  1  4  8  4  0.0000000  0 14R09G16G09G04R08G26G07G27R06R17R18G20
                                G08R10
 104199330.053 8  81043955.146 8  19513187.251    19513187.332    19513189.336
        53.000          49.000
 108227190.824 8  84332889.84346  20594949.411    20594948.663    20594950.216
        49.000          41.0004
 109623591.868 8  85420994.44748  20860675.600    20860675.187    20860678.472
        51.000          53.0004
 110269854.951 8  85924576.59246  20983655.036    20983655.021    20983657.796
        48.000          38.0004
 113831600.600 7  88535716.206 7  21257247.642    21257247.752    21257251.806
        42.000          45.000
 119653976.155 7  93236878.00844  22769394.220    22769393.758    22769399.178
        42.000          29.0004
 121982713.082 7  95051484.47346  23212540.530    23212539.776    23212541.716
        43.000          40.0004
 120070683.198 7  93561586.69446  22848688.854    22848689.464    22848693.972
        42.000          37.0004
 119536474.088 6  92972852.777 3  22401086.406    22401085.464    22401110.267
        36.000          20.000
 119754955.546 7  93142775.442 6  22379074.508    22379074.807    22379079.603
        42.000          40.000
 121616119.363 7  94590346.755 6  22782797.040    22782796.335    22782802.042
        42.000          37.000
 128107137.954 5  99823750.81642  24377974.352    24377973.295    24377979.130
        35.000          14.0004
 129181771.736 5 100661140.02944  24582474.956    24582474.150    24582479.726
        35.000          24.0004
 119597599.040 7  93020382.048 3  22436205.289    22436205.235    22436225.340
        43.000          20.000
 22  1  4  8  4 30.0000000  0 14R09G16G09G04R08G26G07G27R06R17R18G20
                                G08R10
 104166224.402 8  81018206.310 8  19506987.424    19506987.739    19506989.949
        52.000          49.000
 108253601.122 8  84353469.28446  20599975.125    20599974.426    20599975.910
        48.000          41.0004
 109601644.752 8  85403892.79348  20856499.199    20856498.841    20856502.136
        51.000          52.0004
 110322164.177 8  85965337.00846  20993609.279    20993609.047    20993611.702
        48.000          38.0004
 113747702.231 7  88470461.937 7  21241579.895    21241580.723    21241584.053
        43.000          44.000
 119745714.140 7  93308362.12144  22786851.576    22786850.568    22786856.338
        42.000          29.0004
 121895949.140 7  94983876.23746  23196029.708    23196028.978    23196030.463
        43.000          39.0004
 119976576.022 6  93488256.52746  22830780.844    22830781.349    22830785.989
        41.000          37.0004
 119666021.079 6  93073611.092 3  22425363.838    22425362.942    22425381.400
        36.000          20.000
 119764161.418 7  93149935.561 6  22380794.885    22380795.149    22380800.795
        42.000          41.000
 121526466.672 6  94520616.999 6  22766001.228    22766001.122    22766006.178
        41.000          37.000
 128056871.209 5  99784581.92642  24368409.994    24368408.534    24368412.821
        35.000          15.0004
 129065432.187 5 100570485.94844  24560334.702    24560334.804    24560341.395
        35.000          25.0004
 119488295.075 7  92935367.936 3  22415700.849    22415700.524    22415725.282
        43.000          20.000
 22  1  4  8  5  0.0000000  0 14R09G16G09G04R08G26G07G27R06R17R18G20
                                G08R10
 104133626.285 8  80992852.224 8  19500883.115    19500883.244    19500885.297
        53.000          51.000
 108280586.831 8  84374497.09046  20605110.361    20605109.687    20605111.108
        49.000          41.0004
 109580236.574 8  85387211.08948  20852425.596    20852424.977    20852428.352
        51.000          53.0004
 110374947.801 8  86006467.08446  21003653.863    21003653.484    21003656.035
        48.000          38.0004
 113664378.822 7  88405654.863 7  21226020.782    21226020.905    21226024.276
        43.000          45.000
 119837683.704 7  93380026.68344  22804352.415    22804351.894    22804357.369
        43.000          29.0004
 121809286.862 7  94916347.21146  23179538.492    23179537.690    23179539.355
        43.000          39.0004
 119882818.602 7  93415198.87246  22812941.087    22812940.095    22812944.600
        42.000          37.0004
 119795804.408 5  93174553.818 3  22449685.190    22449684.322    22449692.690
        35.000          20.000
 119774161.813 7  93157713.658 6  22382663.158    22382663.814    22382669.835
        42.000          41.000
 121437343.541 7  94451299.124 6  22749305.535    22749305.047    22749310.771
        42.000          37.000
 128007092.934 5  99745793.66042  24358936.930    24358937.078    24358939.842
        35.000          14.0004
 128949130.678 5 100479861.52444  24538203.285    24538203.684    24538210.462
        35.000          26.0004
 119379203.181 7  92850519.141 3  22395234.748    22395234.348    22395263.604
        43.000          20.000
 22  1  4  8  5 30.0000000  0 14R09G16G09G04R08G26G07G27R06R17R18G20
                                G08R10
 104101542.170 8  80967897.913 8  19494874.919    19494874.921    19494877.001
        53.000          49.000
 108308152.570 8  84395976.87246  20610355.977    20610355.331    20610356.735
        48.000          41.0004
 109559374.612 8  85370955.00548  20848455.408    20848455.094    20848458.465
        51.000          52.0004
 110428210.875 8  86047970.75546  21013789.505    21013789.373    21013792.007
        48.000          38.0004
 113581639.514 7  88341302.089 7  21210569.119    21210569.603    21210573.025
        43.000          45.000
 119929888.674 7  93451874.68144  22821899.233    22821898.113    22821903.673
        42.000          29.0004
 121722734.009 7  94848903.48146  23163067.139    23163067.026    23163068.796
        43.000          39.0004
 119789420.324 7  93342421.05046  22795167.514    22795166.972    22795171.303
        42.000          37.0004
 119925826.765 6  93275682.370 3  22474051.907    22474050.733    22474061.687
        36.000          20.000
 119784962.342 7  93166114.063 6  22384682.229    22384682.338    22384687.373
        43.000          40.000
 121348760.067 7  94382401.012 6  22732710.095    22732709.851    22732716.178
        42.000          37.000
 127957810.314 5  99707391.58342  24349559.166    24349558.101    24349561.458
        35.000          14.0004
 128832876.407 6 100389273.91944  24516081.792    24516081.497    24516087.507
        36.000          26.0004
 119270331.718 7  92765840.833 3  22374809.607    22374810.185    22374842.166
        42.000          20.000
 22  1  4  8  6  0.0000000  0 14R09G16G09G04R08G26G07G27R06R17R18G20
                                G08R10
 104069994.351 8  80943360.724 8  19488966.535    19488966.990    19488969.050
        53.000          49.000
 108336318.727 8  84417924.51246  20615715.939    20615715.101    20615716.500
        50.000          41.0004
 109539081.637 8  85355142.29248  20844593.734    20844593.435    20844596.899
        51.000          53.0004
 110481973.945 8  86089864.02846  21024020.472    21024020.302    21024022.697
        49.000          38.0004
 113499510.669 7  88277424.115 7  21195233.106    21195233.070    21195235.630
        43.000          45.000
 120022348.446 7  93523921.22644  22839492.782    22839492.615    22839498.473
        42.000          29.0004
 121636313.095 7  94781562.53546  23146622.541    23146621.869    23146623.203
        43.000          39.0004
 119696406.163 7  93269942.53146  22777467.321    22777466.743    22777471.362
        42.000          38.0004
 120056106.241 6  93377010.794 3  22498465.790    22498465.012    22498473.290
        36.000          20.000
 119796584.601 7  93175153.590 6  22386855.360    22386855.154    22386860.046
        43.000          40.000
 121260742.514 7  94313943.045 6  22716222.007    22716221.709    22716226.953
        42.000          37.000
 127909047.019 6  99669394.19542  24340280.085    24340279.436    24340281.559
        36.000          14.0004
 128716693.177 5 100298741.64444  24493971.991    24493971.395    24493978.431
        35.000          26.0004
 119161703.919 7  92681353.153 3  22354432.297    22354432.086    22354472.327
        42.000          20.000
 22  1  4  8  6 30.0000000  0 14R09G16G09G04R08G26G07G27R06R17R18G20
                                G08R10
 104038972.234 8  80919232.417 8  19483157.392    19483157.483    19483159.570
        53.000          49.000
 108365073.139 8  84440330.54046  20621187.766    20621186.930    20621188.354
        49.000          41.0004
 109519348.346 8  85339765.69648  20840838.399    20840838.228    20840841.773
        51.000          52.0004
 110536225.454 8  86132137.91346  21034344.401    21034343.958    21034346.626
        49.000          38.0004
 113417985.155 7  88214015.401 7  21180008.292    21180008.595    21180011.738
        43.000          45.000
 120115050.307 6  93596156.40244  22857132.959    22857133.066    22857138.784
        41.000          28.0004
 121550014.326 7  94714316.76646  23130199.452    23130199.511    23130201.220
        42.000          39.0004
 119603769.034 7  93197757.78746  22759838.517    22759838.387    22759843.123
        42.000          38.0004
 120186628.794 6  93478528.411 3  22522925.845    22522924.685    22522924.785
        36.000          20.000
 119809017.609 7  93184823.709 6  22389179.436    22389178.333    22389182.029
        43.000          40.000
 121173284.829 7  94245920.555 6  22699837.120    22699836.930    22699843.490
        42.000          37.000
 127860794.086 6  99631794.52742  24331098.130    24331098.533    24331100.183
        36.000          14.0004
 128600574.833 6 100208259.91744  24471876.013    24471875.734    24471881.801
        36.000          26.0004
 119053310.927 7  92597047.477 3  22334097.208    22334097.312    22334133.896
        42.000          20.000
 22  1  4  8  7  0.0000000  0 14R09G16G09G04R08G26G07G27R06R17R18G20
                                G08R10
 104008476.401 8  80895513.440 8  19477446.583    19477446.483    19477448.723
        53.000          48.000
 108394414.781 8  84463194.14246  20626771.339    20626770.392    20626771.907
        49.000          41.0004
 109500176.417 8  85324826.52148  20837190.886    20837190.016    20837193.452
        51.000          52.0004
 110590964.863 8  86174791.97146  21044760.429    21044760.668    21044763.048
        48.000          38.0004
 113337067.031 7  88151079.092 7  21164897.366    21164897.832    21164900.977
        44.000          45.000
 120207992.665 6  93668578.98744  22874819.759    22874819.362    22874825.473
        41.000          28.0004
 121463839.531 7  94647167.60146  23113802.657    23113801.308    23113802.441
        43.000          40.0004
 119511512.697 7  93125869.74246  22742283.059    22742282.667    22742287.227
        42.000          37.0004
 120317391.243 5  93580232.586 3  22547431.465    22547429.963    22547420.440
        35.000          20.000
 119822261.680 7  93195124.671 6  22391653.362    22391652.887    22391657.966
        43.000          40.000
 121086391.314 7  94178336.842 6  22683559.435    22683559.449    22683565.475
        42.000          37.000
 127813053.675 5  99594594.17942  24322013.165    24322012.931    24322015.534
        34.000          15.0004
 128484524.469 6 100117831.16144  24449792.743    24449791.363    24449798.014
        36.000          26.0004
 118945154.986 7  92512926.144 3  22313807.974    22313807.863    22313841.131
        43.000          20.000
 22  1  4  8  7 30.0000000  0 14R09G16G09G04R08G26G07G27R06R17R18G20
                                G08R10
 103978521.566 8  80872215.248 7  19471836.908    19471836.982    19471838.976
        53.000          47.000
 108424355.974 8  84486524.93646  20632469.044    20632468.041    20632469.591
        49.000          41.0004
 109481580.756 8  85310336.39348  20833651.942    20833651.421    20833654.824
        50.000          53.0004
 110646204.928 8  86217836.16746  21055272.726    21055272.317    21055274.827
        48.000          38.0004
 113256773.850 7  88088628.864 7  21149902.938    21149903.336    21149906.165
        43.000          43.000
 120301187.009 7  93741197.91244  22892553.955    22892553.628    22892559.106
        42.000          28.0004
 121377803.761 7  94580126.75246  23097429.161    23097428.707    23097430.436
        42.000          39.0004
 119419654.436 7  93054291.87946  22724802.840    22724802.678    22724807.140
        43.000          38.0004
 120448403.810 5  93682131.776 3  22571981.195    22571981.923    22571962.478
        35.000          20.000
 119836330.169 7  93206066.825 6  22394282.233    22394282.284    22394286.242
        44.000          39.000
 121000080.552 7  94111206.395 6  22667392.122    22667390.762    22667395.267
        43.000          36.000
 127765841.544 5  99557805.49142  24313029.560    24313029.219    24313031.494
        35.000          15.0004
 128368558.672 5 100027468.27444  24427725.995    24427724.404    24427730.242
        35.000          26.0004
 118837251.584 7  92429000.686 3  22293565.529    22293564.980    22293601.213
        42.000          20.000
 22  1  4  8  8  0.0000000  0 14R09G16G09G04R08G26G07G27R06R17R18G20
                                G08R10
 103949112.536 8  80849341.553 8  19466329.240    19466329.659    19466331.729
        53.000          49.000
 108454900.277 8  84510325.67846  20638281.209    20638280.452    20638281.972
        48.000          41.0004
 109463567.587 8  85296300.14648  20830224.185    20830223.736    20830227.060
        51.000          53.0004
 110701949.594 8  86261273.56046  21065880.356    21065880.186    21065882.855
        49.000          38.0004
 113177114.579 7  88026671.669 7  21135027.129    21135027.360    21135030.848
        43.000          44.000
 120394636.223 6  93814015.45144  22910337.365    22910336.602    22910342.274
        41.000          28.0004
 121291912.884 7  94513198.80846  23081084.569    23081084.246    23081085.697
        42.000          39.0004
 119328202.543 7  92983030.65046  22707400.270    22707399.964    22707404.741
        43.000          38.0004
 120579668.246 5  93784225.813 3  22596580.642    22596579.848    22596565.025
        35.000          20.000
 119851227.869 7  93217653.937 6  22397066.279    22397065.584    22397071.037
        42.000          40.000
 120914361.591 7  94044536.223 6  22651334.099    22651333.268    22651338.464
        43.000          38.000
 127719164.420 5  99521433.74242  24304147.862    24304147.465    24304148.423
        35.000          14.0004
 128252685.948 6  99937177.90944  24405675.184    24405674.232    24405679.923
        36.000          26.0004
 118729607.611 7  92345277.547 3  22273371.436    22273371.484    22273378.936
        43.000          20.000
 22  1  4  8  8 30.0000000  0 14R09G16G09G04R08G26G07G27R06R17R18G20
                                G08R10
 103920247.982 8  80826891.342 8  19460924.202    19460924.295    19460926.262
        52.000          49.000
 108486044.645 8  84534594.01046  20644207.459    20644207.007    20644208.524
        49.000          40.0004
 109446136.234 8  85282717.26548  20826907.024    20826906.662    20826909.995
        51.000          53.0004
 110758195.989 7  86305101.90546  21076583.740    21076583.280    21076586.265
        47.000          38.0004
 113098091.217 7  87965209.066 7  21120269.819    21120270.441    21120273.834
        44.000          45.000
 120488336.448 6  93887028.57144  22928167.571    22928167.052    22928172.563
        41.000          27.0004
 121206166.248 7  94446383.24746  23064767.725    23064767.007    23064768.266
        42.000          39.0004
 119237158.571 7  92912087.28146  22690075.154    22690074.978    22690079.605
        43.000          38.0004
 120711178.910 5  93886511.893 3  22621225.135    22621225.319    22621210.767
        35.000          20.000
 119866952.113 7  93229883.920 6  22400004.369    22400003.657    22400009.390
        42.000          40.000
 120829236.998 7  93978328.350 6  22635385.784    22635385.656    22635390.690
        43.000          37.000
 127673022.284 6  99485478.81542  24295367.516    24295365.180    24295368.411
        36.000          14.0004
 128136907.759 5  99846961.19444  24383643.583    24383642.033    24383647.905
        35.000          26.0004
 118622222.613 7  92261755.825 3  22253226.388    22253225.981    22253251.630
        42.000          20.000
 22  1  4  8  9  0.0000000  0 14R09G16G09G04R08G26G07G27R06R17R18G20
                                G08R10
 103891918.189 8  80804857.064 8  19455618.639    19455618.997    19455620.898
        53.000          49.000
 108517777.479 8  84559320.88846  20650246.285    20650245.512    20650247.044
        49.000          40.0004
 109429278.082 8  85269581.03348  20823699.101    20823698.613    20823701.969
        51.000          53.0004
 110814933.250 8  86349312.72846  21087380.361    21087380.340    21087383.021
        48.000          38.0004
 113019697.356 7  87904236.083 7  21105630.670    21105631.027    21105633.987
        44.000          45.000
 120582275.685 6  93960227.95344  22946043.653    22946043.486    22946048.278
        41.000          27.0004
 121120555.322 7  94379673.45446  23048476.076    23048475.947    23048477.762
        42.000          39.0004
 119146516.183 7  92841456.82346  22672826.801    22672826.499    22672831.117
        43.000          38.0004
 120842922.440 5  93988979.595 3  22645914.559    22645914.538    22645894.616
        35.000          20.000
 119883492.826 7  93242748.906 6  22403095.017    22403095.035    22403100.227
        42.000          40.000
 120744701.216 7  93912578.399 6  22619549.604    22619549.175    22619554.637
        43.000          37.000
 127627406.710 5  99449934.23042  24286685.422    24286684.968    24286688.223
        35.000          15.0004
 128021217.348 5  99756812.90644  24361626.970    24361626.934    24361633.448
        35.000          26.0004
 118515088.231 7  92178429.591 3  22233129.264    22233128.405    22233150.541
        43.000          20.000
 22  1  4  8  9 30.0000000  0 14R09G16G09G04R08G26G07G27R06R17R18G20
                                G08R10
 103864111.618 8  80783229.733 8  19450411.655    19450411.691    19450413.761
        53.000          50.000
 108550086.060 8  84584496.40146  20656394.635    20656393.753    20656395.169
        49.000          41.0004
 109412982.681 8  85256883.31548  20820597.895    20820597.646    20820601.103
        50.000          53.0004
 110872148.786 8  86393896.24446  21098268.078    21098268.002    21098270.905
        49.000          37.0004
 112941924.848 7  87843746.369 7  21091107.080    21091107.372    21091110.972
        44.000          45.000
 120676440.294 7  94033602.92744  22963962.883    22963962.088    22963967.869
        42.000          27.0004
 121035069.642 7  94313061.24346  23032207.939    23032207.844    23032210.029
        42.000          39.0004
 119056267.159 7  92771132.88546  22655652.573    22655652.519    22655657.473
        43.000          39.0004
 120974883.480 6  94091615.517 3  22670646.328    22670643.917    22670622.312
        36.000          20.000
 119900837.355 6  93256239.104 6  22406336.699    22406336.179    22406342.299
        41.000          41.000
 120660746.330 7  93847280.257 6  22603822.640    22603821.828    22603827.871
        44.000          38.000
 127582308.007 5  99414792.39142  24278103.230    24278101.653    24278105.229
        34.000          14.0004
 127905606.788 5  99666726.83444  24339627.643    24339627.447    24339632.475
        35.000          26.0004
 118408195.134 7  92095290.493 3  22213075.164    22213075.135    22213085.762
        43.000          20.000
 22  1  4  8 10  0.0000000  0 14R09G16G09G04R08G26G07G27R06R17R18G20
                                G08R10
 103836837.489 8  80762016.532 8  19445304.059    19445304.009    19445306.070
        53.000          51.000
 108582977.775 8  84610126.30346  20662653.460    20662652.778    20662654.257
        48.000          41.0004
 109397259.972 8  85244631.84348  20817605.482    20817605.649    20817609.209
        51.000          53.0004
 110929850.304 8  86438858.44546  21109248.294    21109248.257    21109251.038
        48.000          37.0004
 112864786.366 7  87783749.780 7  21076702.699    21076702.592    21076705.377
        44.000          45.000
 120770837.062 6  94107158.81444  22981925.328    22981925.578    22981930.988
        41.000          27.0004
 120949719.527 7  94246554.66746  23015967.254    23015966.833    23015968.585
        43.000          39.0004
 118966423.739 7  92701124.99046  22638556.439    22638555.974    22638561.065
        43.000          39.0004
 121107067.703 5  94194425.366 3  22695413.872    22695415.058    22695421.372
        35.000          20.000
 119918994.264 7  93270361.114 6  22409730.920    22409729.666    22409733.911
        42.000          40.000
 120577386.074 7  93782444.585 6  22588206.770    22588205.178    22588210.978
        43.000          37.000
 127537736.593 5  99380061.39842  24269622.497    24269621.531    24269623.912
        35.000          15.0004
 127790087.944 5  99576712.24244  24317644.928    24317644.495    24317650.974
        35.000          26.0004
 118301553.629 7  92012347.125 3  22193068.821    22193069.405    22193071.338
        43.000          20.000
 22  1  4  8 10 30.0000000  0 15R09G16G09G04R08G26G07G27R06R17R18G20
                                G08R10G30
 103810117.281 8  80741234.152 8  19440299.849    19440300.188    19440302.331
        53.000          50.000
 108616471.652 8  84636225.42346  20669027.484    20669026.571    20669028.024
        49.000          40.0004
 109382132.141 8  85232843.92248  20814727.278    20814726.952    20814730.521
        51.000          52.0004
 110988057.803 8  86484214.92546  21120324.991    21120324.721    21120327.581
        48.000          37.0004
 112788307.072 7  87724265.903 7  21062420.530    21062420.549    21062423.568
        44.000          45.000
 120865484.867 6  94180910.31544  22999936.457    22999936.246    22999941.658
        41.000          27.0004
 120864527.063 7  94180170.94446  22999755.343    22999754.938    22999756.988
        42.000          39.0004
 118877010.367 7  92631452.20746  22621541.983    22621541.245    22621546.346
        43.000          39.0004
 121239492.594 5  94297422.522 3  22720231.458    22720231.898    22720238.958
        35.000          20.000
 119937984.423 7  93285131.226 6  22413279.502    22413279.320    22413283.954
        43.000          40.000
 120494645.469 7  93718090.861 6  22572705.414    22572705.519    22572710.390
        43.000          37.000
 127493714.582 5  99345758.52242  24261244.578    24261243.606    24261247.815
        34.000          14.0004
 127674684.668 5  99486787.69444  24295684.794    24295683.729    24295689.645
        34.000          26.0004
 118195186.517 7  91929616.656 3  22173114.865    22173114.623    22173122.365
        43.000          20.000
 134697460.431 5 104959071.44243  25632072.210    25632071.695    25632078.669
        33.000          22.0004
 22  1  4  8 11  0.0000000  0 15R09G16G09G04R08G26G07G27R06R17R18G20
                                G08R10G30
 103783936.405 8  80720871.248 8  19435397.204    19435397.454    19435399.453
        53.000          49.000
 108650551.843 8  84662781.41046  20675512.559    20675511.804    20675513.164
        49.000          41.0004
 109367585.639 8  85221508.97748  20811959.411    20811958.933    20811962.488
        50.000          53.0004
 111046755.544 7  86529953.41146  21131494.921    21131494.766    21131497.389
        47.000          38.0004
 112712475.829 7  87665286.065 7  21048259.287    21048259.654    21048262.678
        44.000          45.000
 120960367.040 6  94254844.44844  23017992.534    23017992.147    23017997.413
        41.000          27.0004
 120779478.652 7  94113899.46046  22983571.845    22983571.211    22983572.538
        43.000          39.0004
 118788015.690 7  92562105.67846  22604606.313    22604606.101    22604611.156
        43.000          39.0004
 121372139.867 5  94400592.663 3  22745089.168    22745090.025    22745096.668
        35.000          20.000
 119957791.951 7  93300537.058 6  22416980.124    22416980.025    22416983.842
        42.000          40.000
 120412514.210 7  93654211.056 6  22557319.119    22557318.903    22557324.279
        42.000          37.000
 127450229.837 5  99311874.30342  24252970.124    24252968.085    24252971.510
        34.000          14.0004
 127559386.223 5  99396944.82444  24273742.201    24273743.332    24273749.378
        34.000          25.0004
 118089080.580 7  91847089.812 3  22153210.748    22153210.217    22153218.248
        43.000          20.000
 134593722.384 5 104878236.71843  25612331.514    25612331.374    25612338.006
        33.000          23.0004
 22  1  4  8 11 30.0000000  0 15R09G16G09G04R08G26G07G27R06R17R18G20
                                G08R10G30
 103758307.038 8  80700937.296 8  19430597.812    19430597.809    19430599.900
        53.000          49.000
 108685228.051 8  84689801.82846  20682111.294    20682110.404    20682111.974
        48.000          40.0004
 109353633.033 8  85210636.81348  20809304.506    20809303.860    20809307.406
        50.000          53.0004
 111105953.924 8  86576082.01046  21142759.701    21142759.838    21142762.441
        48.000          37.0004
 112637307.923 7  87606822.155 7  21034222.047    21034222.359    21034225.742
        43.000          45.000
 121055493.017 6  94328968.55344  23036094.121    23036093.544    23036098.725
        41.000          26.0004
 120694587.043 7  94047750.15846  22967416.647    22967416.648    22967418.699
        43.000          40.0004
 118699454.664 7  92493097.06446  22587753.841    22587753.380    22587758.485
        43.000          39.0004
 121505017.724 5  94503942.082 3  22769990.057    22769990.623    22769997.557
        35.000          20.000
 119978427.798 7  93316587.157 6  22420836.853    22420837.152    22420841.246
        43.000          40.000
 120331008.079 7  93590817.458 6  22542049.782    22542049.595    22542055.683
        42.000          37.000
 127407295.684 5  99278419.14742  24244799.640    24244798.075    24244803.333
        34.000          14.0004
 127444206.910 5  99307194.78044  24251825.401    24251825.011    24251831.051
        35.000          25.0004
 117983249.683 7  91764776.909 3  22133356.705    22133356.408    22133351.353
        43.000          20.000
 134490008.913 5 104797421.12643  25592595.923    25592594.318    25592601.414
        32.000          23.0004
 22  1  4  8 12  0.0000000  0 15R09G16G09G04R08G26G07G27R06R17R18G20
                                G08R10G30
 103733201.345 8  80681410.642 8  19425896.306    19425896.330    19425898.209
        53.000          48.000
 108720471.675 8  84717264.38646  20688817.413    20688816.979    20688818.663
        49.000          40.0004
 109340248.135 8  85200207.01148  20806757.085    20806756.803    20806760.309
        51.000          53.0004
 111165624.561 8  86622578.60146  21154114.842    21154114.601    21154117.374
        48.000          38.0004
 112562778.916 7  87548855.157 7  21020304.139    21020304.720    21020307.703
        44.000          45.000
 121150833.383 6  94403259.72944  23054236.719    23054236.762    23054242.125
        41.000          26.0004
 120609826.536 7  93981703.02546  22951288.574    22951287.515    22951289.228
        43.000          40.0004
 118611303.334 7  92424407.70046  22570978.607    22570978.711    22570983.724
        43.000          39.0004
 121638094.909 5  94607446.588 3  22794929.821    22794930.475    22794937.321
        35.000          20.000
 119999863.811 7  93333259.588 6  22424841.901    22424842.480    22424846.427
        42.000          40.000
 120250103.401 7  93527891.640 6  22526894.896    22526894.222    22526899.035
        43.000          37.000
 127364885.996 5  99245372.62042  24236729.993    24236729.102    24236732.129
        33.000          13.0004
 127329122.898 5  99217518.96344  24229925.663    24229926.073    24229931.641
        35.000          26.0004
 117877667.734 7  91682658.252 3  22113550.144    22113549.459    22113555.200
        43.000          20.000
 134386293.906 5 104716604.29743  25572858.649    25572858.614    25572864.393
        33.000          23.0004
 22  1  4  8 12 30.0000000  0 15R09G16G09G04R08G26G07G27R06R17R18G20
                                G08R10G30
 103708628.980 8  80662298.809 7  19421294.458    19421294.722    19421296.711
        53.000          47.000
 108756290.580 8  84745175.22146  20695633.725    20695633.114    20695634.613
        49.000          41.0004
 109327441.314 8  85190227.66748  20804319.949    20804319.734    20804323.125
        50.000          52.0004
 111225775.631 8  86669449.56146  21165561.378    21165561.057    21165563.498
        48.000          37.0004
 112488902.183 7  87491395.491 7  21006507.662    21006508.482    21006511.848
        44.000          44.000
 121246395.554 6  94477723.73644  23072421.681    23072421.312    23072426.702
        40.000          26.0004
 120525207.334 7  93915766.00246  22935184.672    22935184.721    22935186.563
        44.000          40.0004
 118523574.380 7  92356047.46746  22554285.119    22554284.400    22554289.466
        43.000          39.0004
 121771377.269 5  94711110.552 3  22819907.087    22819906.523    22819886.926
        34.000          20.000
 120022108.639 6  93350561.110 6  22428999.234    22428998.734    22429003.094
        41.000          39.000
 120169813.993 7  93465444.360 6  22511852.304    22511852.508    22511858.722
        43.000          37.000
 127323011.277 5  99212742.99042  24228759.274    24228760.301    24228761.953
        34.000          14.0004
 127214147.121 5  99127927.46944  24208047.222    24208046.610    24208052.253
        35.000          25.0004
 117772345.620 7  91600740.616 3  22093791.873    22093791.098    22093807.032
        43.000          20.000
 134282587.674 5 104635794.25043  25553124.087    25553123.906    25553130.280
        33.000          23.0004
 22  1  4  8 13  0.0000000  0 15R09G16G09G04R08G26G07G27R06R17R18G20
                                G08R10G30
 103684599.596 8  80643609.291 8  19416794.913    19416794.826    19416796.855
        53.000          49.000
 108792692.571 8  84773540.40146  20702560.811    20702560.177    20702561.806
        49.000          40.0004
 109315222.908 8  85180706.82548  20801994.770    20801994.585    20801997.941
        51.000          53.0004
 111286415.280 8  86716701.23346  21177100.484    21177100.428    21177103.136
        48.000          37.0004
 112415690.592 7  87434453.144 7  20992836.888    20992837.169    20992840.300
        44.000          45.000
 121342186.744 6  94552366.19444  23090649.597    23090649.210    23090655.309
        40.000          26.0004
 120440740.180 7  93849947.46246  22919111.455    22919111.287    22919113.069
        43.000          40.0004
 118436280.473 7  92288026.22946  22537673.439    22537673.058    22537678.088
        43.000          39.0004
 121904870.986 5  94814938.996 3  22844924.137    22844922.899    22844931.637
        34.000          20.000
 120045170.659 6  93368498.214 6  22433308.789    22433308.738    22433313.335
        41.000          40.000
 120090153.341 7  93403486.094 6  22496930.366    22496930.024    22496935.010
        43.000          37.000
 127281682.640 5  99180538.84442  24220895.113    24220894.655    24220898.004
        33.000          13.0004
 127099291.648 6  99038429.71044  24186190.293    24186190.680    24186196.736
        36.000          26.0004
 117667294.267 7  91519033.970 3  22074084.786    22074084.106    22074092.286
        44.000          20.000
 134178900.828 5 104554999.31343  25533394.022    25533393.181    25533399.171
        33.000          23.0004
 22  1  4  8 13 30.0000000  0 15R09G16G09G04R08G26G07G27R06R17R18G20
                                G08R10G30
 103661097.514 8  80625329.917 8  19412393.580    19412393.709    19412395.613
        53.000          50.000
 108829660.509 8  84802346.58646  20709595.681    20709595.063    20709596.540
        49.000          41.0004
 109303578.274 8  85171633.08248  20799778.802    20799778.707    20799782.020
        51.000          53.0004
 111347526.740 8  86764320.54246  21188729.770    21188729.307    21188732.330
        48.000          37.0004
 112343131.974 7  87378018.680 7  20979285.943    20979287.251    20979290.330
        44.000          45.000
 121438189.203 6  94627173.29044  23108918.766    23108918.564    23108923.429
        41.000          26.0004
 120356410.718 7  93784236.20546  22903063.933    22903063.633    22903065.639
        42.000          40.0004
 118349409.307 7  92220334.41646  22521142.301    22521141.907    22521146.894
        42.000          39.0004
 122038556.600 5  94918916.692 3  22869976.538    22869975.225    22869984.038
        34.000          20.000
 120069033.283 6  93387058.026 6  22437767.643    22437766.937    22437771.974
        41.000          39.000
 120011109.427 7  93342007.516 6  22482122.164    22482122.169    22482127.840
        43.000          38.000
 127240885.902 5  99148749.19942  24213132.882    24213131.105    24213134.832
        34.000          14.0004
 126984544.419 6  98949016.30544  24164355.025    24164354.680    24164360.073
        36.000          25.0004
 117562500.314 7  91437527.686 3  22054426.247    22054425.447    22054435.269
        44.000          20.000
 134075218.831 5 104474208.16344  25513664.280    25513662.957    25513669.527
        33.000          24.0004
 22  1  4  8 14  0.0000000  0 15R09G16G09G04R08G26G07G27R06R17R18G20
                                G08R10G30
 103638137.410 8  80607472.064 8  19408094.076    19408094.025    19408095.977
        53.000          50.000
 108867206.686 8  84831603.34346  20716740.624    20716739.869    20716741.440
        49.000          40.0004
 109292522.803 8  85163018.42148  20797675.118    20797674.922    20797678.257
        51.000          53.0004
 111409123.170 7  86812317.74146  21200451.290    21200450.812    21200453.547
        47.000          37.0004
 112271244.213 7  87322105.988 7  20965862.065    20965862.578    20965865.826
        44.000          45.000
 121534415.346 6  94702154.69144  23127230.185    23127229.993    23127234.855
        41.000          26.0004
 120272234.067 7  93718644.04046  22887046.450    22887045.933    22887047.366
        44.000          41.0004
 118262978.545 7  92152985.77646  22504694.681    22504694.438    22504699.605
        42.000          39.0004
 122172445.023 5  95023052.143 3  22895066.627    22895066.212    22895074.127
        33.000          20.000
 120093710.246 7  93406251.204 6  22442380.014    22442380.068    22442384.084
        42.000          40.000
 119932701.167 7  93281023.311 6  22467434.930    22467434.228    22467439.252
        44.000          38.000
 127200637.566 5  99117386.84042  24205474.980    24205474.075    24205476.824
        35.000          15.0004
 126869922.465 6  98859700.51544  24142543.235    24142542.946    24142549.180
        36.000          26.0004
 117457979.519 7  91356233.663 3  22034817.684    22034817.693    22034833.215
        44.000          20.000
 133971557.204 5 104393432.79244  25493936.996    25493937.374    25493942.899
        34.000          24.0004
 22  1  4  8 14 30.0000000  0 15R09G16G09G04R08G26G07G27R06R17R18G20
                                G08R10G30
 103615728.275 8  80590042.740 8  19403897.434    19403897.473    19403899.627
        53.000          50.000
 108905338.292 8  84861316.28246  20723996.730    20723995.939    20723997.549
        49.000          40.0004
 109282066.166 8  85154870.39248  20795685.094    20795685.041    20795688.423
        50.000          52.0004
 111471212.133 8  86860698.73946  21212266.225    21212266.019    21212268.808
        48.000          37.0004
 112200040.027 7  87266724.973 7  20952564.640    20952565.424    20952568.890
        45.000          46.000
 121630871.860 6  94777315.61144  23145584.972    23145584.467    23145590.595
        40.000          26.0004
 120188220.614 7  93653179.04246  22871058.693    22871058.452    22871060.016
        44.000          40.0004
 118177000.314 7  92085989.77646  22488333.668    22488333.444    22488338.544
        43.000          39.0004
 122306541.831 5  95127349.621 3  22920194.124    22920195.990    22920201.624
        34.000          20.000
 120119209.143 6  93426083.686 6  22447143.808    22447143.869    22447149.311
        41.000          40.000
 119854941.418 7  93220543.510 6  22452867.572    22452866.481    22452872.425
        43.000          37.000
 127160947.528 6  99086459.51942  24197921.720    24197921.478    24197925.049
        36.000          16.0004
 126755438.432 5  98770492.21744  24120756.981    24120756.841    24120763.790
        35.000          26.0004
 117353742.223 7  91275160.681 3  22015262.595    22015262.705    22015277.399
        43.000          20.000
 133867925.749 5 104312681.00744  25474217.327    25474216.814    25474222.862
        33.000          24.0004
 22  1  4  8 15  0.0000000  0 15R09G16G09G04R08G26G07G27R06R17R18G20
                                G08R10G30
 103593853.780 8  80573029.238 8  19399800.801    19399800.964    19399803.197
        53.000          50.000
 108944037.547 8  84891471.53946  20731361.010    20731360.232    20731361.795
        49.000          40.0004
 109272193.126 8  85147177.10948  20793806.568    20793806.291    20793809.718
        50.000          52.0004
 111533776.227 8  86909449.95646  21224171.953    21224171.675    21224174.513
        48.000          37.0004
 112129506.356 7  87211865.468 7  20939392.822    20939393.939    20939397.391
        44.000          46.000
 121727540.464 6  94852641.78844  23163980.989    23163979.991    23163985.529
        40.000          26.0004
 120104355.387 7  93587829.53046  22855099.856    22855099.604    22855100.732
        44.000          41.0004
 118091461.609 7  92019336.26546  22472055.881    22472055.928    22472061.038
        43.000          40.0004
 122440826.952 5  95231793.649 3  22945362.959    22945360.879    22945370.459
        35.000          20.000
 120145513.027 7  93446542.246 6  22452060.951    22452060.970    22452064.989
        42.000          41.000
 119777817.800 7  93160558.476 6  22438419.079    22438418.788    22438423.826
        43.000          37.000
 127121801.498 6  99055956.13542  24190473.896    24190471.411    24190474.274
        36.000          14.0004
 126641079.614 6  98681381.52444  24098996.024    24098995.658    24099001.725
        36.000          26.0004
 117249774.079 7  91194296.598 3  21995757.901    21995757.891    21995770.784
        43.000          20.000
 133764309.476 5 104231941.03544  25454500.422    25454499.127    25454504.787
        34.000          25.0004
 22  1  4  8 15 30.0000000  0 15R09G16G09G04R08G26G07G27R06R17R18G20
                                G08R10G30
 103572516.548 8  80556433.611 8  19395805.277    19395805.228    19395807.410
        53.000          50.000
 108983305.411 8  84922069.87646  20738833.498    20738832.543    20738834.174
        48.000          40.0004
 109262907.111 8  85139941.25348  20792039.503    20792039.276    20792042.685
        51.000          53.0004
 111596816.747 8  86958572.42046  21236168.370    21236168.020    21236170.573
        48.000          37.0004
 112059648.929 7  87157531.940 7  20926347.963    20926348.293    20926351.921
        44.000          46.000
 121824421.657 6  94928133.63444  23182416.550    23182416.266    23182420.907
        40.000          25.0004
 120020642.256 7  93522598.55646  22839169.764    22839169.491    22839170.917
        44.000          41.0004
 118006368.288 7  91953029.82446  22455863.774    22455863.371    22455868.154
        43.000          40.0004
 122575299.441 5  95336383.291 3  22970561.930    22970561.322    22970569.430
        34.000          20.000
 120172623.009 6  93467627.812 6  22457125.900    22457126.979    22457131.190
        41.000          40.000
 119701337.072 7  93101073.453 6  22424091.355    22424091.388    22424096.900
        43.000          37.000
 127083203.000 5  99025879.39742  24183127.384    24183126.216    24183127.972
        35.000          14.0004
 126526851.420 6  98592372.60844  24077257.574    24077258.145    24077265.337
        36.000          27.0004
 117146079.006 7  91113644.187 3  21976305.970    21976305.511    21976315.322
        44.000          20.000
 133660712.053 5 104151215.74044  25434785.536    25434785.752    25434790.730
        34.000          25.0004
 22  1  4  8 16  0.0000000  0 15R09G16G09G04R08G26G07G27R06R17R18G20
                                G08R10G30
 103551703.212 8  80540245.463 8  19391907.562    19391907.734    19391909.739
        53.000          49.000
 109023127.104 8  84953099.76446  20746411.048    20746410.365    20746411.951
        49.000          40.0004
 109254195.846 8  85133153.24848  20790382.379    20790381.643    20790384.985
        51.000          53.0004
 111660319.244 7  87008054.85746  21248252.402    21248252.026    21248254.589
        47.000          36.0004
 111990458.314 7  87103717.037 7  20913427.504    20913427.766    20913430.802
        44.000          46.000
 121921500.256 6  95003779.29144  23200890.077    23200889.400    23200895.841
        41.000          26.0004
 119937069.005 7  93457476.55146  22823266.402    22823265.906    22823267.088
        44.000          41.0004
 117921710.415 7  91887062.69446  22439753.766    22439753.513    22439758.358
        43.000          40.0004
 122709942.386 5  95441105.471 3  22995793.216    22995793.657    22995800.716
        34.000          20.000
 120200524.856 6  93489329.273 6  22462341.464    22462341.209    22462345.801
        41.000          41.000
 119625489.276 7  93042080.710 6  22409883.729    22409882.933    22409887.217
        44.000          37.000
 127045139.711 5  98996219.65642  24175883.333    24175882.384    24175886.091
        34.000          15.0004
 126412743.889 6  98503457.73444  24055543.670    24055544.305    24055550.867
        36.000          27.0004
 117042645.705 7  91033196.049 3  21956901.480    21956901.189    21956908.980
        43.000          20.000
 133557121.462 5 104070495.78343  25415072.314    25415071.725    25415077.424
        33.000          23.0004
 22  1  4  8 16 30.0000000  0 15R09G16G09G04R08G26G07G27R06R17R18G20
                                G08R10G30
 103531428.520 8  80524476.262 8  19388110.745    19388110.869    19388112.904
        53.000          49.000
 109063514.785 8  84984570.68546  20754096.372    20754095.803    20754097.538
        48.000          40.0004
 109246074.244 8  85126824.72148  20788836.733    20788836.139    20788839.501
        51.000          52.0004
 111724296.596 8  87057907.32146  21260427.097    21260426.644    21260429.193
        48.000          36.0004
 111921951.960 7  87050434.342 7  20900634.500    20900634.722    20900637.722
        44.000          46.000
 122018788.290 6  95079588.14444  23219403.000    23219402.605    23219408.407
        40.000          25.0004
 119853650.922 7  93392475.46846  22807392.831    22807392.154    22807393.662
        44.000          41.0004
 117837505.307 7  91821448.37846  22423730.556    22423729.830    22423734.639
        43.000          40.0004
 122844766.512 5  95545969.188 3  23021059.814    23021059.800    23021014.091
        35.000          20.000
 120229231.548 7  93511656.726 6  22467706.002    22467705.203    22467709.823
        42.000          40.000
 119550292.841 7  92983594.603 6  22395795.752    22395795.329    22395801.076
        43.000          37.000
 127007627.949 5  98966989.72242  24168747.476    24168745.200    24168746.951
        35.000          14.0004
 126298774.582 5  98414650.56944  24033855.335    24033856.194    24033863.721
        35.000          27.0004
 116939490.134 7  90952963.882 3  21937548.799    21937549.194    21937557.352
        43.000          20.000
 133453552.933 5 103989793.01544  25395363.860    25395363.741    25395369.747
        34.000          25.0004
 22  1  4  8 17  0.0000000  0 15R09G16G09G04R08G26G07G27R06R17R18G20
                                G08R10G30
 103511680.159 8  80509116.425 8  19384412.529    19384412.468    19384414.726
        53.000          48.000
 109104455.147 8  85016472.26346  20761887.432    20761886.534    20761888.255
        49.000          40.0004
 109238531.407 8  85120947.17648  20787401.448    20787400.753    20787404.198
        51.000          53.0004
 111788735.694 7  87108119.59146  21272689.295    21272688.958    21272691.583
        47.000          36.0004
 111854121.356 7  86997677.225 7  20887967.273    20887967.923    20887970.713
        44.000          45.000
 122116271.905 6  95155549.43044  23237954.048    23237953.332    23237958.696
        40.000          25.0004
 119770377.764 7  93327587.31246  22791545.142    22791545.420    22791546.726
        44.000          41.0004
 117753744.413 7  91756180.20046  22407791.419    22407790.691    22407795.278
        43.000          40.0004
 122979756.464 5  95650961.312 3  23046358.768    23046357.093    23046300.730
        35.000          20.000
 120258729.778 6  93534599.833 6  22473217.120    22473216.399    22473222.012
        41.000          40.000
 119475739.976 7  92925609.016 6  22381830.192    22381829.649    22381834.055
        43.000          37.000
 126970657.150 6  98938181.32642  24161709.870    24161709.449    24161711.997
        36.000          14.0004
 126184934.724 6  98325944.25044  24012193.237    24012193.158    24012199.915
        36.000          27.0004
 116836601.275 7  90872939.311 3  21918248.227    21918247.826    21918255.727
        44.000          20.000
 133349995.726 5 103909099.13144  25375659.147    25375657.180    25375663.317
        33.000          25.0004
 22  1  4  8 17 30.0000000  0 15R09G16G09G04R08G26G07G27R06R17R18G20
                                G08R10G30
 103492475.771 8  80494179.678 8  19380816.307    19380816.263    19380818.319
        53.000          48.000
 109145963.384 8  85048816.34246  20769785.930    20769785.247    20769786.969
        48.000          40.0004
 109231585.386 8  85115534.69448  20786079.585    20786078.952    20786082.482
        51.000          53.0004
 111853652.467 8  87158704.07346  21285042.198    21285042.111    21285044.872
        48.000          36.0004
 111786987.633 7  86945462.136 7  20875430.351    20875431.136    20875434.085
        45.000          45.000
 122213966.405 6  95231675.01044  23256542.911    23256543.681    23256549.661
        39.000          25.0004
 119687267.557 7  93262826.13646  22775730.488    22775730.163    22775731.544
        44.000          41.0004
 117670448.187 7  91691274.10146  22391940.179    22391939.943    22391944.465
        43.000          40.0004
 123114926.215 5  95756092.816 3  23071688.239    23071687.574    23071695.739
        35.000          20.000
 120289036.114 6  93558171.442 6  22478880.590    22478880.470    22478885.858
        40.000          40.000
 119401851.714 7  92868140.350 6  22367988.364    22367987.168    22367992.599
        43.000          37.000
 126934245.806 5  98909808.86042  24154782.515    24154779.889    24154782.973
        35.000          15.0004
 126071244.827 6  98237354.80044  23990558.832    23990558.528    23990565.871
        36.000          28.0004
 116733998.711 7  90793137.173 3  21899000.618    21899000.692    21899013.911
        44.000          20.000
 133246468.156 5 103828428.27244  25355958.110    25355956.665    25355962.916
        33.000          24.0004
 22  1  4  8 18  0.0000000  0 15R09G16G09G04R08G26G07G27R06R17R18G20
                                G08R10G30
 103473816.051 8  80479666.568 8  19377321.852    19377321.840    19377323.952
        53.000          50.000
 109188039.066 8  85081602.58146  20777792.883    20777792.132    20777793.682
        49.000          40.0004
 109225237.810 8  85110588.52548  20784871.527    20784871.064    20784874.579
        51.000          53.0004
 111919046.412 7  87209660.37146  21297486.330    21297486.121    21297489.059
        46.000          36.0004
 111720554.775 7  86893792.156 7  20863023.813    20863024.919    20863028.159
        45.000          46.000
 122311870.492 6  95307963.91944  23275175.543    23275174.301    23275179.654
        40.000          25.0004
 119604322.711 7  93198193.80346  22759946.641    22759946.211    22759947.621
        45.000          41.0004
 117587620.703 7  91626733.26346  22376178.188    22376178.224    22376182.895
        43.000          40.0004
 123250272.931 5  95861362.548 3  23097052.123    23097051.553    23096994.199
        35.000          20.000
 120320150.027 6  93582371.192 6  22484694.568    22484695.165    22484699.207
        41.000          40.000
 119328633.065 7  92811192.503 6  22354272.274    22354271.626    22354276.260
        43.000          38.000
 126898396.167 5  98881874.09542  24147958.109    24147957.628    24147961.143
        34.000          14.0004
 125957709.172 6  98148885.51644  23968955.087    23968953.896    23968960.102
        38.000          28.0004
 116631684.750 7  90713559.741 3  21879805.499    21879806.020    21879819.013
        44.000          20.000
 133142972.397 5 103747782.27144  25336262.426    25336261.567    25336268.421
        33.000          25.0004
 22  1  4  8 18 30.0000000  0 15R09G16G09G04R08G26G07G27R06R17R18G20
                                G08R10G30
 103455695.574 8  80465572.870 8  19373928.005    19373928.370    19373930.636
        52.000          49.000
 109230674.081 8  85114824.66746  20785906.144    20785905.425    20785906.747
        49.000          40.0004
 109219483.767 8  85106104.85648  20783776.422    20783776.136    20783779.529
        51.000          53.0004
 111984910.552 8  87260983.04346  21310019.455    21310019.605    21310022.506
        48.000          36.0004
 111654820.369 7  86842665.412 7  20850749.326    20850749.564    20850752.620
        45.000          45.000
 122409976.533 6  95384410.18244  23293843.792    23293843.593    23293848.820
        40.000          24.0004
 119521538.508 7  93133686.66046  22744193.905    22744193.060    22744194.421
        44.000          41.0004
 117505259.429 7  91562555.69946  22360505.044    22360505.138    22360509.847
        43.000          40.0004
 123385787.482 5  95966762.708 3  23122447.842    23122446.721    23122386.075
        35.000          20.000
 120352064.354 6  93607193.466 6  22490658.266    22490658.936    22490663.287
        41.000          41.000
 119256081.933 7  92754763.865 6  22340679.835    22340679.770    22340685.300
        44.000          38.000
 126863103.627 5  98854373.42742  24141241.120    24141242.391    24141245.020
        34.000          14.0004
 125844325.247 6  98060534.44944  23947377.253    23947377.626    23947383.766
        37.000          28.0004
 116529655.589 7  90634204.303 3  21860667.172    21860666.532    21860676.888
        45.000          20.000
 133039503.850 5 103667157.42944  25316573.538    25316572.941    25316578.949
        33.000          25.0004
 22  1  4  8 19  0.0000000  0 15R09G16G09G04R08G26G07G27R06R17R18G20
                                G08R10G30
 103438112.798 8  80451897.374 8  19370635.864    19370635.747    19370637.985
        53.000          50.000
 109273865.337 8  85148480.18946  20794125.248    20794124.363    20794125.798
        49.000          40.0004
 109214322.699 8  85102083.23848  20782794.388    20782793.987    20782797.309
        51.000          53.0004
 112051242.185 7  87312670.00546  21322642.462    21322642.300    21322645.088
        47.000          36.0004
 111589786.150 7  86792083.269 7  20838603.978    20838604.762    20838608.222
        45.000          46.000
 122508281.139 6  95461011.18744  23312550.157    23312549.967    23312555.870
        39.000          25.0004
 119438915.231 7  93069304.89646  22728470.463    22728470.362    22728471.734
        44.000          41.0004
 117423366.243 7  91498742.88846  22344921.902    22344921.351    22344926.035
        42.000          40.0004
 123521464.943 5  96072289.568 3  23147873.917    23147872.622    23147881.417
        35.000          20.000
 120384776.623 6  93632636.364 6  22496771.447    22496771.900    22496776.718
        41.000          41.000
 119184200.807 7  92698856.335 6  22327214.729    22327214.681    22327220.313
        44.000          39.000
 126828368.450 5  98827307.05442  24134631.912    24134631.701    24134634.919
        34.000          14.0004
 125731095.231 6  97972303.33344  23925831.370    23925830.498    23925837.082
        37.000          29.0004
 116427911.084 7  90555069.068 3  21841578.883    21841578.519    21841582.665
        44.000          20.000
 132936062.204 5 103586553.59344  25296889.122    25296888.682    25296894.564
        33.000          26.0004
 22  1  4  8 19 30.0000000  0 15R09G16G09G04R08G26G07G27R06R17R18G20
                                G08R10G30
 103421056.384 8  80438631.282 8  19367441.227    19367441.631    19367443.874
        53.000          50.000
 109317600.242 8  85182559.33146  20802447.411    20802446.930    20802448.465
        49.000          40.0004
 109209744.208 8  85098515.57948  20781922.994    20781922.860    20781926.038
        51.000          52.0004
 112118028.876 7  87364711.55946  21335351.636    21335351.445    21335354.177
        47.000          36.0004
 111525444.302 7  86742039.626 7  20826589.241    20826589.415    20826592.830
        44.000          46.000
 122606771.186 6  95537756.66644  23331292.793    23331292.074    23331297.763
        40.000          24.0004
 119356442.621 7  93005040.54646  22712776.608    22712776.394    22712777.625
        44.000          41.0004
 117341933.160 7  91435288.59846  22329425.132    22329424.852    22329429.680
        43.000          40.0004
 123657290.635 5  96177932.156 3  23173327.423    23173327.273    23173262.015
        35.000          20.000
 120418273.934 6  93658689.824 6  22503031.884    22503031.317    22503036.281
        41.000          41.000
 119112982.180 7  92643464.093 6  22313873.665    22313872.970    22313878.080
        44.000          38.000
 126794180.614 5  98800667.20442  24128128.149    24128126.947    24128129.887
        35.000          14.0004
 125618010.999 6  97884185.78844  23904311.031    23904311.410    23904317.677
        38.000          29.0004
 116326441.852 7  90476148.463 3  21822542.925    21822542.686    21822538.535
        44.000          20.000
 132832637.615 5 103505963.07744  25277209.145    25277207.822    25277213.254
        33.000          26.0004
 22  1  4  8 20  0.0000000  0 15R09G16G09G04R08G26G07G27R06R17R18G20
                                G08R10G30
 103404535.186 8  80425781.463 8  19364347.750    19364347.732    19364349.878
        53.000          49.000
 109361885.682 7  85217067.45846  20810874.660    20810874.024    20810875.554
        47.000          40.0004
 109205757.758 8  85095409.24748  20781164.758    20781164.232    20781167.521
        50.000          53.0004
 112185277.980 7  87417113.42746  21348148.606    21348148.453    21348151.243
        47.000          36.0004
 111461806.603 7  86692543.661 7  20814705.529    20814705.665    20814708.729
        45.000          46.000
 122705453.424 6  95614651.90644  23350071.068    23350070.939    23350076.802
        40.000          25.0004
 119274130.916 7  92940901.56346  22697113.162    22697112.848    22697114.498
        44.000          41.0004
 117260972.144 7  91372202.15946  22314019.052    22314018.588    22314023.427
        43.000          40.0004
 123793269.776 5  96283693.067 3  23198807.614    23198810.068    23198815.114
        35.000          20.000
 120452563.811 7  93685359.735 6  22509440.550    22509439.813    22509443.882
        42.000          40.000
 119042438.414 7  92588596.756 6  22300656.945    22300657.674    22300662.301
        43.000          38.000
 126760550.217 6  98774461.70442  24121728.451    24121726.496    24121731.614
        36.000          15.0004
 125505084.690 6  97796191.29044  23882821.772    23882822.091    23882828.534
        38.000          29.0004
 116225258.251 7  90397450.597 3  21803561.562    21803561.599    21803552.503
        45.000          20.000
 132729239.963 5 103425393.46244  25257532.325    25257532.351    25257537.524
        35.000          26.0004
 22  1  4  8 20 30.0000000  0 15R09G16G09G04R08G26G07G27R06R17R18G20
                                G08R10G30
 103388565.459 8  80413360.587 8  19361356.917    19361357.026    19361359.311
        52.000          49.000
 109406735.860 8  85252015.64046  20819409.710    20819408.845    20819410.314
        48.000          40.0004
 109202380.254 8  85092777.42548  20780521.851    20780521.463    20780524.839
        52.000          53.0004
 112253004.319 8  87469887.15946  21361036.485    21361036.535    21361039.162
        48.000          36.0004
 111398892.973 7  86643610.856 7  20802956.309    20802957.100    20802959.917
        45.000          45.000
 122804342.083 6  95691707.98744  23368888.051    23368888.724    23368893.502
        40.000          25.0004
 119191997.440 7  92876901.48346  22681483.438    22681483.490    22681484.847
        44.000          41.0004
 117180502.468 7  91309498.59346  22298706.357    22298705.695    22298710.479
        43.000          40.0004
 123929415.398 5  96389584.542 3  23224322.832    23224323.369    23224263.740
        34.000          20.000
 120487661.330 7  93712657.813 6  22515999.741    22515998.888    22516003.328
        42.000          41.000
 118972590.309 7  92534270.496 6  22287573.249    22287572.680    22287577.632
        44.000          38.000
 126727494.563 5  98748704.08442  24115437.122    24115436.316    24115440.238
        34.000          15.0004
 125392335.970 6  97708335.19145  23861367.881    23861367.058    23861373.534
        38.000          30.0004
 116124378.509 7  90318988.119 3  21784637.460    21784636.587    21784626.148
        45.000          20.000
 132625886.479 5 103344858.34544  25237864.737    25237864.352    25237871.012
        34.000          26.0004
 22  1  4  8 21  0.0000000  0 15R09G16G09G04R08G26G07G27R06R17R18G20
                                G08R10G30
 103373131.860 8  80401356.683 8  19358466.567    19358466.893    19358469.064
        53.000          50.000
 109452134.053 8  85287390.84546  20828048.735    20828047.889    20828049.299
        49.000          40.0004
 109199597.329 8  85090608.90448  20779992.161    20779991.810    20779995.262
        51.000          53.0004
 112321191.455 8  87523019.95646  21374012.287    21374012.159    21374014.741
        48.000          36.0004
 111336691.509 7  86595231.959 7  20791340.339    20791341.210    20791344.087
        45.000          46.000
 122903420.137 6  95768911.64844  23387743.736    23387742.824    23387747.690
        40.000          24.0004
 119110028.896 7  92813029.91047  22665885.490    22665885.353    22665886.626
        44.000          42.0004
 117100512.222 7  91247168.59346  22283484.948    22283484.129    22283488.758
        43.000          41.0004
 124065708.715 5  96495590.440 3  23249865.188    23249865.219    23249813.354
        34.000          20.000
 120523549.488 7  93740570.838 6  22522705.508    22522705.279    22522709.999
        42.000          40.000
 118903425.745 7  92480475.876 6  22274615.088    22274615.430    22274621.231
        43.000          38.000
 126694999.885 6  98723383.50642  24109254.850    24109253.644    24109256.595
        36.000          15.0004
 125279752.506 6  97620607.84644  23839943.851    23839943.124    23839949.650
        38.000          29.0004
 116023788.654 7  90240752.070 3  21765766.971    21765766.263    21765754.638
        45.000          20.000
 132522563.443 5 103264346.94744  25218203.916    25218202.257    25218208.543
        34.000          26.0004
 22  1  4  8 21 30.0000000  0 15R09G16G09G04R08G26G07G27R06R17R18G20
                                G08R10G30
 103358242.803 8  80389776.311 8  19355678.223    19355678.584    19355680.674
        53.000          49.000
 109498086.831 8  85323198.19446  20836792.955    20836792.345    20836793.696
        49.000          39.0004
 109197417.862 8  85088910.62148  20779577.189    20779577.099    20779580.561
        51.000          52.0004
 112389846.209 7  87576517.14046  21387076.900    21387076.470    21387079.356
        47.000          36.0004
 111275213.571 7  86547415.807 7  20779860.004    20779860.734    20779863.579
        45.000          46.000
 123002693.803 6  95846267.75544  23406633.826    23406634.038    23406639.654
        40.000          25.0004
 119028233.944 7  92749293.61747  22650321.328    22650320.288    22650321.508
        45.000          42.0004
 117021012.769 7  91185221.01746  22268356.459    22268356.093    22268360.555
        43.000          41.0004
 124202154.563 5  96601714.419 3  23275434.677    23275434.636    23275442.177
        34.000          20.000
 120560235.369 7  93769104.291 6  22529562.677    22529561.276    22529565.310
        43.000          40.000
 118834956.831 7  92427222.337 6  22261789.554    22261789.212    22261794.365
        44.000          38.000
 126663075.662 6  98698507.49942  24103181.343    24103178.248    24103181.555
        37.000          15.0004
 125167346.879 6  97533019.09745  23818553.298    23818552.359    23818559.429
        38.000          30.0004
 115923498.962 7  90162749.090 3  21746952.606    21746952.362    21746949.493
        45.000          20.000
 132419280.139 5 103183866.43244  25198549.085    25198547.891    25198553.877
        34.000          25.0004
 22  1  4  8 22  0.0000000  0 15R09G16G09G04R08G26G07G27R06R17R18G20
                                G08R10G30
 103343874.017 8  80378600.598 7  19352987.434    19352987.723    19352990.079
        53.000          47.000
 109544568.192 8  85359417.42346  20845638.032    20845637.388    20845638.874
        48.000          40.0004
 109195818.651 8  85087664.47948  20779273.235    20779272.768    20779276.306
        51.000          53.0004
 112458943.281 7  87630358.97946  21400225.226    21400225.260    21400228.347
        47.000          36.0004
 111214437.888 7  86500145.848 7  20768510.531    20768510.876    20768514.501
        45.000          45.000
 123102137.204 6  95923756.08844  23425557.214    23425557.115    23425562.786
        40.000          24.0004
 118946590.347 7  92685675.25647  22634784.472    22634783.836    22634785.603
        44.000          42.0004
 116941983.383 7  91123639.72846  22253318.167    22253317.178    22253321.879
        44.000          41.0004
 124338725.272 5  96707936.130 3  23301027.376    23301027.976    23301034.876
        32.000          20.000
 120597692.896 7  93798237.926 6  22536561.703    22536561.430    22536564.708
        42.000          40.000
 118767163.148 7  92374493.975 6  22249089.422    22249089.213    22249094.254
        44.000          39.000
 126631699.103 6  98674058.23042  24097209.498    24097208.952    24097210.182
        36.000          15.0004
 125055097.758 6  97445552.30745  23797192.361    23797192.566    23797198.172
        37.000          30.0004
 115823486.770 7  90084961.866 3  21728190.664    21728190.761    21728190.146
        45.000          20.000
 132316013.880 5 103103399.25844  25178899.309    25178897.110    25178903.209
        34.000          27.0004
 22  1  4  8 22 30.0000000  0 15R09G16G09G04R08G26G07G27R06R17R18G20
                                G08R10G30
 103330033.776 8  80367835.972 8  19350395.732    19350396.020    19350398.159
        53.000          49.000
 109591584.940 8  85396053.84346  20854585.262    20854584.545    20854585.878
        48.000          39.0004
 109194808.585 8  85086877.41348  20779081.115    20779080.628    20779084.101
        50.000          53.0004
 112528489.658 7  87684550.93345  21413459.682    21413459.714    21413462.350
        46.000          35.0004
 111154376.513 7  86453431.453 7  20757294.121    20757294.893    20757298.243
        45.000          45.000
 123201756.878 6  96001381.80344  23444514.534    23444513.819    23444519.806
        39.000          24.0004
 118865107.871 7  92622182.45847  22619278.346    22619278.253    22619279.651
        45.000          42.0004
 116863435.501 7  91062433.63146  22238369.839    22238369.907    22238374.635
        44.000          41.0004
 124475425.837 5  96814259.327 3  23326645.131    23326645.400    23326610.472
        32.000          20.000
 120635929.231 7  93827977.316 6  22543707.266    22543707.321    22543709.910
        42.000          39.000
 118700056.718 7  92322300.144 6  22236518.608    22236517.448    22236523.070
        44.000          39.000
 126600879.724 6  98650043.13042  24091344.565    24091343.159    24091345.088
        37.000          15.0004
 124943016.612 6  97358216.41944  23775864.248    23775863.912    23775869.970
        38.000          29.0004
 115723761.579 7  90007397.360 3  21709483.000    21709482.003    21709490.500
        45.000          20.000
 132212774.308 5 103022952.83844  25159253.155    25159251.218    25159257.459
        34.000          27.0004
 22  1  4  8 23  0.0000000  0 15R09G16G09G04R08G26G07G27R06R17R18G20
                                G08R10G30
 103316738.565 8  80357495.266 8  19347905.639    19347906.174    19347908.319
        53.000          50.000
 109639150.661 8  85433118.02946  20863636.787    20863635.881    20863637.292
        49.000          39.0004
 109194404.519 8  85086562.55648  20779004.036    20779003.757    20779007.216
        51.000          53.0004
 112598499.969 7  87739104.38945  21426782.352    21426782.002    21426784.968
        47.000          35.0004
 111095048.535 7  86407287.481 7  20746215.963    20746216.400    20746218.924
        45.000          46.000
 123301566.844 6  96079155.77844  23463508.094    23463508.055    23463512.826
        40.000          24.0004
 118783803.938 7  92558828.77447  22603806.797    22603806.558    22603808.419
        44.000          42.0004
 116785388.333 7  91001617.69846  22223517.626    22223517.964    22223522.566
        43.000          41.0004
 124612269.307 5  96920692.662 3  23352289.454    23352290.059    23352249.939
        32.000          20.000
 120674958.810 6  93858333.653 6  22551000.604    22550999.847    22551003.498
        41.000          39.000
 118633657.344 7  92270656.250 6  22224079.061    22224078.534    22224084.347
        43.000          39.000
 126570634.602 6  98626475.48342  24085587.894    24085587.808    24085591.372
        36.000          16.0004
 124831123.201 6  97271026.82345  23754570.786    23754571.106    23754577.181
        38.000          30.0004
 115624342.053 7  89930070.897 3  21690830.684    21690830.973    21690838.184
        44.000          20.000
 132109578.592 5 102942540.61644  25139615.043    25139613.599    25139619.934
        34.000          26.0004
 22  1  4  8 23 30.0000000  0 15R09G16G09G04R08G26G07G27R06R17R18G20
                                G08R10G30
 103303970.777 8  80347564.768 8  19345515.046    19345515.256    19345517.403
        53.000          50.000
 109687247.040 8  85470595.71746  20872788.986    20872788.420    20872789.963
        49.000          39.0004
 109194590.122 8  85086707.18048  20779039.360    20779038.992    20779042.582
        50.000          53.0004
 112668955.944 7  87794005.13445  21440189.770    21440189.311    21440192.354
        47.000          35.0004
 111036440.152 7  86361703.200 7  20735271.147    20735271.496    20735274.346
        45.000          45.000
 123401548.374 6  96157063.44144  23482534.156    23482533.844    23482539.176
        39.000          24.0004
 118702662.919 7  92495602.04047  22588366.551    22588365.964    22588367.412
        45.000          42.0004
 116707828.089 7  90941181.19046  22208759.063    22208758.700    22208763.413
        44.000          41.0004
 124749234.937 5  97027222.025 3  23377957.722    23377957.865    23377916.076
        33.000          20.000
 120714762.983 6  93889292.478 6  22558437.627    22558437.811    22558442.003
        41.000          40.000
 118567951.798 7  92219552.001 6  22211769.447    22211769.249    22211775.481
        43.000          40.000
 126540948.268 5  98603343.28242  24079938.806    24079938.882    24079940.667
        35.000          15.0004
 124719403.974 6  97183972.96245  23733310.311    23733311.291    23733317.148
        37.000          30.0004
 115525212.288 7  89852969.957 3  21672234.960    21672234.272    21672242.460
        45.000          20.000
 132006411.221 5 102862150.44944  25119982.651    25119981.659    25119987.527
        35.000          27.0004
 22  1  4  8 24  0.0000000  0 16R09G16G09G04R08G26G07G27R06R17R18G20
                                G08R10G30G18
 103291744.149 8  80338055.174 8  19343225.612    19343225.528    19343227.783
        53.000          51.000
 109735885.800 8  85508496.04146  20882044.623    20882044.110    20882045.484
        49.000          39.0004
 109195379.486 8  85087322.26848  20779189.921    20779189.173    20779192.769
        51.000          53.0004
 112739869.647 7  87849262.54845  21453684.082    21453683.783    21453686.630
        47.000          35.0004
 110978568.271 7  86316691.752 7  20724463.081    20724464.123    20724466.984
        45.000          46.000
 123501713.049 6  96235113.83644  23501594.517    23501594.088    23501599.906
        39.000          24.0004
 118621699.597 7  92432513.75747  22572959.465    22572959.078    22572960.597
        44.000          42.0004
 116630771.366 7  90881137.02847  22194095.421    22194095.364    22194099.970
        44.000          42.0004
 124886333.017 5  97133853.789 3  23403647.508    23403649.749    23403614.022
        32.000          20.000
 120755353.748 7  93920863.060 6  22566023.830    22566023.606    22566027.778
        42.000          41.000
 118502957.108 7  92169000.642 6  22199594.515    22199594.147    22199599.417
        44.000          40.000
 126511835.496 5  98580658.01942  24074398.529    24074398.418    24074401.073
        35.000          15.0004
 124607875.837 6  97097068.01745  23712088.166    23712088.422    23712093.565
        38.000          30.0004
 115426387.866 7  89776106.483 3  21653695.771    21653695.186    21653703.271
        45.000          20.000
 131903286.792 5 102781793.74344  25100357.389    25100357.535    25100362.861
        34.000          27.0004
 133004926.582 5                  25309996.484
        31.000
 22  1  4  8 24 30.0000000  0 16R09G16G09G04R08G26G07G27R06R17R18G20
                                G08R10G30G18
 103280060.717 8  80328968.079 8  19341037.705    19341037.678    19341039.680
        53.000          51.000
 109785066.844 8  85546818.92646  20891403.569    20891402.845    20891404.401
        49.000          40.0004
 109196775.109 8  85088409.76848  20779455.050    20779454.763    20779458.395
        51.000          52.0004
 112811241.576 7  87904877.01845  21467265.942    21467265.513    21467268.603
        47.000          35.0004
 110921437.670 7  86272256.861 7  20713795.261    20713795.436    20713798.516
        45.000          46.000
 123602060.939 6  96313306.96943  23520690.104    23520689.192    23520695.295
        39.000          23.0004
 118540917.164 7  92369566.44247  22557586.903    22557586.739    22557588.187
        44.000          42.0004
 116554223.186 7  90821489.13447  22179529.919    22179528.692    22179533.340
        43.000          42.0004
 125023562.336 5  97240587.677 3  23429368.894    23429366.711    23429326.926
        33.000          20.000
 120796731.410 7  93953045.708 6  22573755.522    22573755.409    22573760.820
        42.000          41.000
 118438678.732 7  92119006.401 6  22187553.590    22187552.871    22187558.198
        44.000          39.000
 126483299.146 6  98558421.91542  24068968.897    24068968.204    24068970.273
        36.000          16.0004
 124496543.703 6  97010315.79845  23690902.134    23690902.605    23690907.848
        38.000          30.0004
 115327872.135 7  89699483.134 3  21635213.817    21635214.009    21635221.317
        45.000          20.000
 131800208.503 6 102701473.03444  25080744.245    25080743.043    25080747.807
        36.000          27.0004
 132948075.621 5                  25299178.365
        35.000
 22  1  4  8 25  0.0000000  0 17R09G16G09G04R08G26G07G27R06R17R18G20
                                G08R10R01G30G18
 103268897.882 8  80320285.885 8  19338946.905    19338947.198    19338949.291
        53.000          50.000
 109834766.053 8  85585545.57046  20900861.139    20900860.290    20900861.919
        49.000          39.0004
 109198755.555 8  85089952.96948  20779831.753    20779831.608    20779835.234
        50.000          53.0004
 112883048.240 8  87960830.23945  21480930.244    21480929.918    21480932.941
        48.000          35.0004
 110865029.151 7  86228383.577 7  20703261.887    20703261.709    20703264.352
        46.000          46.000
 123702568.017 6  96391624.18344  23539816.063    23539815.223    23539820.889
        40.000          24.0004
 118460294.760 7  92306743.82847  22542245.354    22542244.759    22542246.142
        45.000          43.0004
 116478164.609 7  90762222.74147  22165055.418    22165055.080    22165059.868
        44.000          42.0004
 125160896.890 5  97347402.937 3  23455101.229    23455102.441    23455070.069
        31.000          20.000
 120838871.737 7  93985821.531 6  22581630.972    22581630.870    22581635.958
        42.000          41.000
 118375097.954 7  92069554.773 6  22175641.418    22175641.202    22175647.598
        44.000          39.000
 126455318.068 6  98536618.46542  24063643.761    24063644.395    24063645.524
        36.000          16.0004
 124385389.636 6  96923702.32245  23669751.654    23669750.492    23669756.358
        39.000          31.0004
 115229644.742 7  89623083.842 3  21616787.133    21616786.762    21616794.633
        45.000          20.000
 128062472.151 5  99604180.297    23956736.290    23956733.241    23956740.373
        34.000           1.000
 131697155.648 5 102621172.07744  25061132.866    25061132.884    25061137.701
        35.000          27.0004
 132891651.078 5 103551949.92341  25288440.236    25288440.465    25288443.175
        34.000          10.0004
 22  1  4  8 25 30.0000000  0 17R09G16G09G04R08G26G07G27R06R17R18G20
                                G08R10R01G30G18
 103258284.602 8  80312031.108 8  19336959.507    19336959.586    19336961.793
        53.000          49.000
 109885010.130 8  85624696.79746  20910422.235    20910421.253    20910422.859
        48.000          39.0004
 109201349.845 8  85091974.49748  20780325.893    20780325.417    20780328.757
        51.000          53.0004
 112955316.732 7  88017143.33445  21494682.616    21494682.214    21494684.986
        47.000          35.0004
 110809374.749 7  86185096.831 7  20692868.264    20692868.479    20692871.689
        46.000          46.000
 123803261.094 6  96470086.31343  23558977.368    23558976.694    23558982.136
        39.000          23.0004
 118379862.670 7  92244069.51147  22526939.977    22526939.050    22526940.385
        45.000          42.0004
 116402627.183 7  90703362.44747  22150680.913    22150680.798    22150685.481
        44.000          42.0004
 125298362.398 5  97454320.553 3  23480863.588    23480864.866    23480871.088
        32.000          20.000
 120881801.962 7  94019211.714 6  22589653.125    22589653.212    22589657.452
        42.000          40.000
 118312247.363 7  92020671.050 6  22163867.665    22163867.544    22163873.290
        44.000          39.000
 126427921.694 6  98515270.65242  24058432.342    24058431.409    24058434.095
        37.000          17.0004
 124274444.927 6  96837251.99145  23648638.088    23648638.529    23648643.902
        38.000          31.0004
 115131736.322 7  89546932.771 3  21598419.870    21598419.260    21598427.370
        45.000          20.000
 127935969.116 5  99505789.024 4  23933070.238    23933069.062    23933074.789
        33.000          29.000
 131594157.972 6 102540914.20344  25041533.360    25041532.961    25041538.376
        36.000          28.0004
 132835684.570 5 103508339.68942  25277791.906    25277790.247    25277793.630
        34.000          12.0004
 22  1  4  8 26  0.0000000  0 17R09G16G09G04R08G26G07G27R06R17R18G20
                                G08R10R01G30G18
 103248178.235 8  80304170.603 8  19335066.660    19335066.957    19335069.258
        53.000          50.000
 109935755.649 8  85664238.75846  20920078.655    20920077.945    20920079.565
        48.000          39.0004
 109204516.807 8  85094442.26048  20780928.351    20780928.014    20780931.440
        51.000          53.0004
 113028003.825 7  88073782.60145  21508514.571    21508514.387    21508516.919
        47.000          35.0004
 110754434.827 7  86142365.793 7  20682608.194    20682608.675    20682611.538
        45.000          46.000
 123904096.465 6  96548659.31744  23578165.483    23578165.360    23578171.628
        38.000          24.0004
 118299580.551 7  92181512.04247  22511661.759    22511661.749    22511663.097
        45.000          42.0004
 116327572.292 7  90644878.15047  22136399.313    22136398.486    22136402.919
        44.000          42.0004
 125435913.122 5  97561304.979 3  23506640.918    23506640.669    23506610.833
        31.000          20.000
 120925477.817 6  94053181.832 6  22597814.270    22597814.546    22597819.904
        41.000          40.000
 118250087.861 7  91972324.859 6  22152222.186    22152222.919    22152227.703
        44.000          39.000
 126401069.792 6  98494347.10543  24053321.481    24053321.704    24053324.842
        37.000          18.0004
 124163671.259 6  96750934.93645  23627559.582    23627559.124    23627564.325
        39.000          32.0004
 115034105.838 7  89470998.412 3  21580103.689    21580103.627    21580081.284
        44.000          20.000
 127809693.117 5  99407574.328 4  23909447.084    23909446.275    23909451.776
        34.000          29.000
 131491175.052 6 102460667.79144  25021937.090    25021936.410    25021941.014
        36.000          27.0004
 132780137.014 5 103465055.85442  25267220.836    25267220.468    25267224.103
        35.000          12.0004
 22  1  4  8 26 30.0000000  0 17R09G16G09G04R08G26G07G27R06R17R18G20
                                G08R10R01G30G18
 103238587.979 8  80296711.536 8  19333270.903    19333270.885    19333273.256
        53.000          48.000
 109987009.905 8  85704177.14046  20929832.280    20929831.309    20929832.894
        49.000          39.0004
 109208265.988 8  85097363.69948  20781641.926    20781641.477    20781644.900
        51.000          52.0004
 113101117.117 7  88130753.95545  21522427.153    21522427.075    21522429.812
        47.000          34.0004
 110700221.551 7  86100199.923 7  20672484.687    20672484.766    20672487.857
        45.000          45.000
 124005081.341 6  96627348.83443  23597382.564    23597382.011    23597386.767
        39.000          23.0004
 118219458.429 7  92119079.25047  22496416.212    22496415.134    22496416.234
        45.000          43.0004
 116253011.986 7  90586779.23847  22122210.415    22122209.852    22122214.334
        44.000          42.0004
 125573554.610 5  97668359.447 3  23532435.849    23532435.315    23532405.126
        32.000          20.000
 120969906.699 7  94087737.615 6  22606118.392    22606117.616    22606121.322
        42.000          40.000
 118188632.105 7  91924526.009 6  22140709.882    22140710.143    22140715.215
        44.000          39.000
 126374772.289 6  98473855.57043  24048317.930    24048316.658    24048320.029
        37.000          18.0004
 124053081.054 6  96664760.82745  23606515.437    23606514.265    23606519.777
        38.000          32.0004
 114936764.252 7  89395287.795 3  21561843.243    21561842.951    21561819.485
        45.000          20.000
 127683657.681 5  99309546.728 4  23885868.391    23885867.985    23885874.204
        32.000          29.000
 131388217.155 5 102380440.90844  25002344.531    25002343.436    25002348.845
        35.000          27.0004
 132725019.851 6 103422107.41542  25256731.540    25256733.076    25256731.311
        36.000          12.0004
 22  1  4  8 27  0.0000000  0 17R09G16G09G04R08G26G07G27R06R17R18G20
                                G08R10R01G30G18
 103229534.357 8  80289669.857 8  19331575.238    19331575.544    19331577.802
        53.000          48.000
 110038791.158 8  85744526.16746  20939685.927    20939685.007    20939686.506
        49.000          39.0004
 109212618.249 8  85100755.07048  20782469.892    20782469.646    20782473.099
        51.000          53.0004
 113174675.506 7  88188072.13345  21536424.862    21536424.639    21536427.566
        47.000          34.0004
 110646758.777 7  86058617.770 7  20662500.440    20662501.291    20662504.241
        46.000          45.000
 124106234.271 6  96706169.27043  23616631.320    23616630.496    23616636.507
        39.000          23.0004
 118139518.027 7  92056788.05147  22481203.283    22481202.802    22481204.283
        45.000          43.0004
 116178969.690 7  90529083.96547  22108120.949    22108120.077    22108124.581
        44.000          42.0004
 125711304.334 5  97775497.620 3  23558252.463    23558250.013    23558215.846
        33.000          20.000
 121015107.524 7  94122893.813 6  22614565.872    22614564.515    22614569.244
        42.000          40.000
 118127904.090 7  91877293.176 6  22129334.371    22129333.589    22129338.991
        44.000          40.000
 126349050.444 6  98453812.57642  24043423.101    24043423.058    24043424.678
        38.000          17.0004
 123942698.186 6  96578748.26545  23585509.430    23585509.127    23585515.064
        38.000          32.0004
 114839733.627 7  89319819.563 3  21543640.423    21543639.950    21543647.923
        45.000          20.000
 127557887.810 5  99211725.680 5  23862343.492    23862341.774    23862347.028
        34.000          30.000
 131285305.958 6 102300250.44444  24982760.789    24982760.128    24982766.572
        36.000          28.0004
 132670356.067 5 103379512.22241  25246330.558    25246333.598    25246326.579
        34.000           8.0004
 22  1  4  8 27 30.0000000  0 17R09G16G09G04R08G26G07G27R06R17R18G20
                                G08R10R01G30G18
 103221016.958 8  80283045.221 8  19329980.452    19329980.557    19329982.634
        53.000          50.000
 110091096.881 8  85785283.87746  20949639.021    20949638.457    20949640.026
        48.000          39.0004
 109217573.930 8  85104616.64148  20783413.145    20783412.712    20783416.199
        51.000          53.0004
 113248677.441 7  88245735.94645  21550507.075    21550506.610    21550509.859
        46.000          34.0004
 110594049.442 7  86017621.640 7  20652657.430    20652657.880    20652660.684
        46.000          46.000
 124207553.239 6  96785119.11643  23635911.546    23635910.285    23635915.865
        38.000          23.0004
 118059760.897 7  91994639.66447  22466026.099    22466025.694    22466026.955
        45.000          43.0004
 116105448.273 7  90471794.57047  22094129.892    22094129.402    22094133.911
        45.000          42.0004
 125849158.755 5  97882717.689 3  23584082.494    23584083.096    23584089.994
        33.000          20.000
 121061078.106 6  94158648.694 6  22623154.516    22623154.985    22623160.179
        41.000          41.000
 118067907.140 7  91830628.938 6  22118094.047    22118094.273    22118099.885
        44.000          40.000
 126323905.533 6  98434219.12843  24038638.183    24038637.213    24038639.829
        37.000          18.0004
 123832525.570 6  96492899.52145  23564544.783    23564544.115    23564550.012
        40.000          33.0004
 114743015.608 7  89244594.874 3  21525496.535    21525496.115    21525485.945
        46.000          20.000
 127432387.504 5  99114114.340 4  23838864.967    23838862.819    23838868.936
        32.000          29.000
 131182442.632 6 102220097.31844  24963187.402    24963186.117    24963191.566
        36.000          28.0004
 132616148.004 5 103337272.11941  25236014.327    25236013.948    25236016.066
        35.000           8.0004
 22  1  4  8 28  0.0000000  0 17R09G16G09G04R08G26G07G27R06R17R18G20
                                G08R10R01G30G18
 103213016.346 8  80276822.524 8  19328482.390    19328482.329    19328484.413
        53.000          50.000
 110143907.005 8  85826434.63446  20959688.501    20959687.844    20959689.406
        49.000          39.0004
 109223114.546 8  85108934.00248  20784467.275    20784467.033    20784470.572
        51.000          53.0004
 113323102.383 7  88303729.37145  21564669.484    21564669.547    21564672.421
        47.000          34.0004
 110542077.359 7  85977198.920 7  20642951.993    20642952.618    20642955.681
        45.000          46.000
 124309017.526 6  96864182.18543  23655219.415    23655219.556    23655223.323
        40.000          23.0004
 117980169.322 7  91932620.28247  22450879.919    22450879.769    22450881.108
        45.000          43.0004
 116032431.769 7  90414898.60247  22080235.817    22080234.925    22080239.568
        45.000          43.0004
 125987095.201 5  97990001.541 3  23609932.948    23609932.327    23609940.448
        33.000          20.000
 121107797.406 7  94194985.909 6  22631885.545    22631885.791    22631890.877
        42.000          40.000
 118008625.401 7  91784520.958 6  22106989.200    22106988.953    22106994.397
        44.000          40.000
 126299318.923 6  98415060.73742  24033960.010    24033958.317    24033960.071
        36.000          17.0004
 123722547.942 6  96407202.68445  23543616.025    23543616.015    23543622.043
        39.000          33.0004
 114646592.626 7  89169598.720 3  21507408.014    21507407.487    21507415.514
        46.000          20.000
 127307141.734 5  99016700.916 5  23815436.097    23815433.855    23815440.007
        34.000          30.000
 131079609.440 5 102139967.60744  24943619.037    24943616.981    24943622.219
        34.000          26.0004
 132562379.152 5 103295374.31441  25225782.662    25225781.473    25225783.467
        34.000          10.0004
 22  1  4  8 28 30.0000000  0 17R09G16G09G04R08G26G07G27R06R17R18G20
                                G08R10R01G30G18
 103205561.853 8  80271024.587 8  19327086.069    19327086.321    19327088.511
        53.000          50.000
 110197248.335 8  85867999.31546  20969839.529    20969838.427    20969839.831
        48.000          39.0004
 109229269.365 8  85113729.96748  20785638.678    20785638.224    20785641.717
        51.000          52.0004
 113397977.694 7  88362073.73645  21578917.996    21578917.933    21578920.660
        47.000          34.0004
 110490874.187 7  85937374.243 7  20633389.626    20633390.584    20633393.414
        45.000          46.000
 124410654.092 6  96943379.52443  23674560.523    23674560.150    23674565.448
        38.000          23.0004
 117900773.539 7  91870753.46647  22435772.069    22435771.433    22435772.758
        45.000          43.0004
 115959952.079 7  90358420.93147  22066443.048    22066442.474    22066447.208
        44.000          43.0004
 126125139.791 5  98097370.075 3  23635801.417    23635802.514    23635769.094
        33.000          20.000
 121155292.615 6  94231926.627 6  22640759.665    22640760.870    22640766.711
        40.000          40.000
 117950091.438 7  91738994.582 6  22096023.771    22096022.898    22096028.726
        44.000          40.000
 126275321.063 6  98396361.10942  24029392.350    24029392.023    24029393.568
        36.000          17.0004
 123612797.530 6  96321682.89045  23522731.571    23522731.191    23522737.219
        39.000          33.0004
 114550495.097 7  89094856.166 3  21489380.350    21489380.205    21489387.850
        46.000          20.000
 127182183.937 5  98919511.531 5  23792059.468    23792056.941    23792064.066
        32.000          30.000
 130976836.530 5 102059884.87344  24924060.904    24924060.436    24924066.195
        35.000          28.0004
 132509080.996 5 103253843.23641  25215640.758    25215638.897    25215642.869
        34.000           8.0004
 22  1  4  8 29  0.0000000  0 17R09G16G09G04R08G26G07G27R06R17R18G20
                                G08R10R01G30G18
 103198646.031 8  80265645.618 8  19325790.989    19325791.185    19325793.333
        53.000          51.000
 110251110.573 8  85909969.89946  20980088.866    20980088.003    20980089.476
        49.000          39.0004
 109236031.597 8  85118999.24248  20786925.258    20786925.047    20786928.542
        51.000          53.0004
 113473294.673 7  88420762.25145  21593250.355    21593250.287    21593252.944
        47.000          34.0004
 110440435.690 7  85898144.310 7  20623971.217    20623971.417    20623974.997
        45.000          47.000
 124512454.029 6  97022704.10543  23693931.895    23693932.311    23693937.760
        38.000          22.0004
 117821567.807 7  91809034.73747  22420700.075    22420699.089    22420700.311
        46.000          44.0004
 115888004.899 7  90302358.20747  22052751.608    22052751.379    22052756.090
        45.000          43.0004
 126263281.748 5  98204813.377 3  23661689.279    23661689.652    23661696.779
        33.000          20.000
 121203554.445 7  94269463.573 6  22649780.737    22649780.742    22649784.352
        42.000          40.000
 117892301.212 7  91694046.673 6  22085197.569    22085197.210    22085202.575
        44.000          40.000
 126251905.229 6  98378115.00242  24024937.496    24024935.721    24024937.120
        37.000          17.0004
 123503270.050 6  96236336.80445  23501888.476    23501888.662    23501894.834
        40.000          33.0004
 114454718.139 7  89020362.936 3  21471412.456    21471412.112    21471419.956
        46.000          20.000
 127057511.027 5  98822543.722 5  23768735.488    23768734.749    23768741.092
        33.000          30.000
 130874118.007 5 101979844.55944  24904514.284    24904513.388    24904518.589
        35.000          27.0004
 132456248.735 5 103212675.29941  25205585.985    25205586.385    25205586.944
        33.000          10.0004
 22  1  4  8 29 30.0000000  0 17R09G16G09G04R08G26G07G27R06R17R18G20
                                G08R10R01G30G18
 103192264.349 8  80260682.091 8  19324595.812    19324596.120    19324598.225
        53.000          50.000
 110305488.653 8  85952342.44546  20990436.500    20990435.678    20990437.317
        48.000          39.0004
 109243397.659 8  85124739.03448  20788327.461    20788326.781    20788330.297
        50.000          53.0004
 113549047.809 7  88479790.63045  21607665.738    21607665.653    21607668.431
        46.000          34.0004
 110390760.313 7  85859507.923 7  20614694.449    20614694.854    20614697.968
        45.000          46.000
 124614411.484 6  97102151.46143  23713334.387    23713334.139    23713338.202
        38.000          22.0004
 117742549.701 7  91747462.20647  22405662.629    22405662.380    22405663.570
        45.000          43.0004
 115816589.239 7  90246709.64447  22039161.727    22039161.415    22039166.181
        45.000          43.0004
 126401513.758 5  98312327.082 3  23687595.858    23687594.066    23687603.358
        33.000          20.000
 121252576.546 6  94307591.858 6  22658940.528    22658940.694    22658947.452
        41.000          40.000
 117835254.103 7  91649676.735 6  22074510.089    22074510.295    22074515.076
        44.000          40.000
 126229068.443 6  98360320.12242  24020589.840    24020589.467    24020592.675
        37.000          17.0004
 123393965.443 6  96151164.38745  23481089.864    23481088.948    23481094.887
        40.000          33.0004
 114359258.643 7  88946116.638 3  21453504.444    21453504.327    21453492.970
        46.000          20.000
 126933123.523 5  98725797.849 5  23745465.002    23745465.925    23745471.311
        33.000          30.000
 130771451.242 6 101899844.51344  24884978.303    24884977.171    24884981.381
        37.000          27.0004
 132403880.773 5 103171869.11941  25195619.487    25195620.841    25195623.471
        32.000          10.0004
 22  1  4  8 30  0.0000000  0 17R09G16G09G04R08G26G07G27R06R17R18G20
                                G08R10R01G30G18
 103186393.040 8  80256115.516 8  19323496.312    19323496.507    19323498.880
        53.000          50.000
 110360357.258 8  85995097.21446  21000877.736    21000876.880    21000878.473
        49.000          39.0004
 109251344.440 8  85130931.33748  20789839.116    20789838.976    20789842.577
        51.000          53.0004
 113625212.134 7  88539139.41345  21622159.126    21622159.118    21622161.934
        47.000          34.0004
 110341827.137 7  85821448.791 7  20605556.394    20605556.892    20605559.906
        46.000          47.000
 124716501.165 6  97181701.84943  23732761.057    23732760.278    23732766.376
        38.000          22.0004
 117663696.576 7  91686018.23447  22390657.476    22390657.140    22390658.554
        45.000          43.0004
 115745684.602 7  90191459.28747  22025668.846    22025668.616    22025673.468
        45.000          43.0004
 126539808.646 5  98419889.790 3  23713510.969    23713510.728    23713518.469
        33.000          20.000
 121302333.216 6  94346291.459 6  22668239.372    22668239.927    22668243.825
        41.000          39.000
 117778929.451 7  91605868.715 6  22063959.617    22063959.309    22063964.055
        44.000          40.000
 126206788.069 6  98342958.80142  24016350.427    24016350.686    24016351.888
        36.000          17.0004
 123284863.849 6  96066150.13845  23460328.425    23460327.585    23460333.632
        40.000          33.0004
 114264094.779 7  88872100.237 3  21435652.475    21435651.825    21435659.975
        46.000          20.000
 126809001.440 5  98629258.465 5  23722246.551    23722246.430    23722252.863
        33.000          31.000
 130668814.047 5 101819867.54644  24865446.928    24865445.175    24865451.148
        35.000          28.0004
 132351956.180 5 103131408.44642  25185739.355    25185739.435    25185742.488
        32.000          13.0004
 22  1  4  8 30 30.0000000  0 17R09G16G09G04R08G26G07G27R06R17R18G20
                                G08R10R01G30G18
 103181068.395 8  80251974.131 8  19322499.164    19322499.511    19322501.532
        53.000          50.000
 110415750.703 8  86038260.95046  21011418.692    21011417.875    21011419.564
        48.000          38.0004
 109259908.348 8  85137604.51248  20791469.077    20791468.633    20791472.278
        51.000          52.0004
 113701822.102 7  88598835.45945  21636737.942    21636737.458    21636740.392
        46.000          34.0004
 110293675.769 7  85783997.734 7  20596564.954    20596565.308    20596568.303
        45.000          46.000
 124818757.407 6  97261381.99943  23752220.110    23752218.651    23752225.456
        38.000          22.0004
 117585046.348 7  91624732.37047  22375690.283    22375690.152    22375691.678
        45.000          43.0004
 115675329.952 7  90136637.49147  22012280.580    22012280.588    22012285.406
        44.000          43.0004
 126678199.722 5  98527527.283 3  23739443.886    23739444.549    23739411.177
        33.000          20.000
 121352859.046 6  94385589.315 6  22677681.072    22677681.878    22677687.127
        41.000          40.000
 117723367.134 7  91562653.605 6  22053549.761    22053549.903    22053555.363
        44.000          40.000
 126185101.205 6  98326059.93342  24012223.866    24012223.051    24012226.544
        36.000          17.0004
 123176004.425 6  95981324.58445  23439612.944    23439612.307    23439618.412
        39.000          33.0004
 114169265.064 7  88798343.726 3  21417862.802    21417862.455    21417848.147
        46.000          20.000
 126685185.867 5  98532957.470 5  23699084.469    23699083.867    23699089.764
        34.000          30.000
 130566243.798 6 101739942.73744  24845928.126    24845926.684    24845930.933
        36.000          26.0004
 132300513.464 5 103091323.23342  25175951.051    25175950.759    25175954.792
        34.000          13.0004
 22  1  4  8 31  0.0000000  0 17R09G16G09G04R08G26G07G27R06R17R18G20
                                G08R10R01G30G18
 103176274.413 8  80248245.484 8  19321601.533    19321601.791    19321603.861
        53.000          50.000
 110471650.700 8  86081819.39446  21022056.108    21022055.331    21022056.893
        48.000          39.0004
 109269074.185 8  85144746.72148  20793213.265    20793212.836    20793216.518
        51.000          53.0004
 113778860.677 7  88658865.48345  21651397.626    21651397.637    21651400.803
        47.000          34.0004
 110246293.342 7  85747144.749 7  20587716.470    20587716.812    20587719.594
        46.000          46.000
 124921162.838 6  97341178.42143  23771706.867    23771706.367    23771711.644
        39.000          22.0004
 117506584.631 7  91563593.39447  22360759.769    22360759.343    22360760.922
        46.000          43.0004
 115605512.667 7  90082234.41247  21998995.397    21998994.833    21998999.581
        45.000          43.0004
 126816667.810 5  98635224.758 3  23765393.787    23765393.870    23765401.287
        32.000          20.000
 121404136.079 6  94425471.436 6  22687263.569    22687263.976    22687268.742
        41.000          39.000
 117668554.346 7  91520021.467 6  22043281.833    22043281.706    22043286.831
        44.000          40.000
 126163992.820 6  98309611.84842  24008207.100    24008206.318    24008210.255
        37.000          17.0004
 123067374.910 6  95896678.16645  23418940.808    23418940.679    23418946.758
        40.000          33.0004
 114074754.507 7  88724835.348 3  21400132.762    21400132.505    21400117.285
        46.000          20.000
 126561665.171 5  98436885.835 5  23675975.378    23675975.755    23675983.719
        33.000          31.000
 130463726.300 5 101660058.95644  24826419.406    24826418.449    24826422.823
        35.000          26.0004
 132249539.394 5 103051603.20842  25166250.287    25166251.286    25166253.353
        35.000          15.0004
 22  1  4  8 31 30.0000000  0 17R09G16G09G04R08G26G07G27R06R17R18G20
                                G08R10R01G30G18
 103171998.638 8  80244919.892 7  19320801.056    19320801.075    19320803.023
        53.000          47.000
 110528044.017 8  86125762.25346  21032787.456    21032786.682    21032788.068
        49.000          38.0004
 109278830.339 8  85152348.91948  20795069.835    20795069.440    20795072.969
        51.000          53.0004
 113856314.353 7  88719218.97045  21666136.900    21666136.532    21666139.442
        46.000          33.0004
 110199669.758 7  85710881.979 7  20579009.352    20579010.097    20579013.223
        46.000          45.000
 125023703.847 6  97421080.48043  23791219.558    23791219.772    23791224.844
        38.000          21.0004
 117428301.163 7  91502593.32347  22345862.360    22345862.567    22345863.929
        45.000          43.0004
 115536223.732 7  90028243.03747  21985810.233    21985809.620    21985814.384
        45.000          43.0004
 126955197.640 5  98742970.120 3  23791355.373    23791354.009    23791362.873
        32.000          20.000
 121456149.931 6  94465926.636 6  22696983.757    22696984.755    22696988.226
        41.000          39.000
 117614482.384 7  91477965.527 6  22033152.777    22033152.262    22033158.107
        44.000          40.000
 126143452.343 6  98293606.29943  24004299.704    24004298.750    24004300.891
        36.000          18.0004
 122958966.405 6  95812203.96145  23398311.545    23398311.311    23398317.481
        40.000          33.0004
 113980553.396 7  88651567.882 3  21382459.974    21382460.069    21382467.474
        46.000          20.000
 126438431.594 5  98341037.517 5  23652923.859    23652922.936    23652929.818
        33.000          30.000
 130361250.952 6 101580208.11544  24806918.836    24806918.033    24806922.491
        36.000          27.0004
 132199024.673 5 103012241.10942  25156639.061    25156638.830    25156641.821
        35.000          16.0004
 22  1  4  8 32  0.0000000  0 17R09G16G09G04R08G26G07G27R06R17R18G20
                                G08R10R01G30G18
 103168259.923 8  80242012.008 8  19320100.423    19320100.844    19320102.846
        52.000          48.000
 110584946.417 8  86170101.79446  21043615.695    21043614.848    21043616.312
        48.000          38.0004
 109289195.670 8  85160425.79748  20797042.124    20797041.890    20797045.342
        50.000          53.0004
 113934200.123 7  88779909.15545  21680957.694    21680957.625    21680960.761
        46.000          34.0004
 110153827.386 7  85675226.822 7  20570448.557    20570449.173    20570452.449
        46.000          46.000
 125126397.219 6  97501101.25443  23810761.415    23810761.307    23810767.702
        38.000          22.0004
 117350215.835 7  91441747.64947  22331003.855    22331003.521    22331004.664
        46.000          43.0004
 115467484.624 7  89974680.10247  21972729.543    21972729.089    21972733.665
        45.000          43.0004
 127093804.854 5  98850775.648 3  23817330.686    23817329.582    23817338.186
        31.000          20.000
 121508917.481 6  94506968.063 6  22706846.338    22706845.236    22706849.662
        40.000          39.000
 117561172.960 7  91436502.689 6  22023166.437    22023166.143    22023170.799
        45.000          40.000
 126123498.853 6  98278058.09942  24000501.885    24000499.808    24000503.237
        36.000          17.0004
 122850801.305 6  95727919.41645  23377728.907    23377728.129    23377734.127
        39.000          33.0004
 113886681.710 7  88578556.645 3  21364849.574    21364849.548    21364838.788
        45.000          20.000
 126315508.335 5  98245430.560 5  23629926.692    23629927.193    23629933.112
        33.000          31.000
 130258837.747 5 101500405.65744  24787429.108    24787428.259    24787433.631
        34.000          25.0004
 132148990.048 6 102973253.09942  25147116.940    25147116.610    25147119.010
        36.000          16.0004
 22  1  4  8 32 30.0000000  0 17R09G16G09G04R08G26G07G27R06R17R18G20
                                G08R10R01G30G18
 103165051.368 8  80239516.470 8  19319499.820    19319499.837    19319502.000
        52.000          50.000
 110642349.638 8  86214831.58446  21054539.187    21054538.431    21054539.656
        49.000          38.0004
 109300163.735 8  85168972.33848  20799129.572    20799129.036    20799132.557
        51.000          53.0004
 114012509.708 7  88840929.58245  21695859.757    21695859.552    21695862.801
        46.000          33.0004
 110108761.242 7  85640175.392 7  20562032.857    20562033.652    20562036.571
        46.000          46.000
 125229234.498 6  97581234.18143  23830330.787    23830330.400    23830336.307
        38.000          22.0004
 117272323.388 7  91381052.26147  22316180.738    22316181.077    22316182.257
        46.000          43.0004
 115399291.449 7  89921542.57147  21959753.045    21959752.226    21959756.725
        45.000          44.0004
 127232479.266 5  98958633.612 3  23843315.058    23843316.256    23843322.558
        31.000          20.000
 121562429.569 6  94548588.562 6  22716846.142    22716845.195    22716848.947
        41.000          39.000
 117508622.540 7  91395630.193 6  22013321.755    22013321.009    22013326.136
        45.000          40.000
 126104126.486 6  98262962.77342  23996815.077    23996814.781    23996817.965
        37.000          17.0004
 122742876.425 6  95643822.06045  23357191.781    23357190.629    23357196.405
        40.000          33.0004
 113793134.519 7  88505797.696 3  21347300.921    21347300.363    21347296.325
        45.000          20.000
 126192892.936 5  98150063.057 5  23606991.510    23606990.559    23606995.971
        34.000          31.000
 130156481.211 6 101420647.35444  24767953.410    24767951.056    24767955.430
        36.000          25.0004
 132099431.257 6 102934635.88142  25137687.554    25137686.383    25137689.821
        36.000          16.0004
 22  1  4  8 33  0.0000000  0 17R09G16G09G04R08G26G07G27R06R17R18G20
                                G08R10R01G30G18
 103162359.974 8  80237423.172 8  19318995.943    19318995.945    19318998.111
        53.000          50.000
 110700239.495 8  86259940.57346  21065555.057    21065554.394    21065555.798
        48.000          38.0004
 109311722.563 8  85177979.21348  20801328.982    20801328.566    20801332.184
        51.000          53.0004
 114091229.262 7  88902269.45745  21710839.706    21710839.510    21710842.480
        45.000          33.0004
 110064462.040 7  85605720.468 7  20553760.326    20553760.998    20553763.874
        46.000          46.000
 125332201.677 6  97661468.33843  23849925.466    23849924.908    23849930.267
        39.000          21.0004
 117194613.006 7  91320498.74747  22301393.417    22301393.123    22301394.431
        46.000          44.0004
 115331634.875 7  89868823.16947  21946877.855    21946877.443    21946882.019
        45.000          43.0004
 127371205.110 5  99066532.019 3  23869315.055    23869313.637    23869284.389
        31.000          20.000
 121616671.428 6  94590776.656 6  22726981.803    22726981.867    22726987.104
        40.000          40.000
 117456821.350 7  91355340.419 6  22003617.988    22003617.626    22003621.864
        45.000          40.000
 126085323.602 6  98248311.16442  23993237.890    23993236.397    23993240.235
        37.000          17.0004
 122635182.949 6  95559905.01745  23336697.677    23336697.373    23336702.818
        40.000          33.0004
 113699900.898 7  88433282.741 3  21329809.567    21329809.770    21329810.677
        45.000          20.000
 126070576.785 5  98054928.274 5  23584105.601    23584108.848    23584114.391
        33.000          31.000
 130054170.485 5 101340924.76944  24748482.470    24748480.733    24748486.261
        34.000          25.0004
 132050338.402 6 102896381.67742  25128344.565    25128344.978    25128345.329
        36.000          15.0004
 22  1  4  8 33 30.0000000  0 17R09G16G09G04R08G26G07G27R06R17R18G20
                                G08R10R01G30G18
 103160193.439 8  80235738.094 8  19318590.113    19318590.072    19318592.505
        52.000          50.000
 110758621.767 8  86305433.25746  21076665.024    21076664.186    21076665.664
        49.000          39.0004
 109323880.116 8  85187452.62548  20803642.234    20803642.045    20803645.703
        50.000          52.0004
 114170364.971 7  88963933.62045  21725898.331    21725898.361    21725901.382
        45.000          33.0004
 110020939.822 7  85571869.866 7  20545633.296    20545633.489    20545636.403
        46.000          46.000
 125435304.831 6  97741808.45143  23869544.084    23869544.137    23869550.377
        38.000          21.0004
 117117093.927 7  91260094.30347  22286642.321    22286641.895    22286643.132
        45.000          44.0004
 115264525.476 7  89816530.13647  21934107.445    21934106.929    21934111.496
        44.000          44.0004
 127509987.202 5  99174473.113 3  23895324.693    23895320.986    23895332.193
        31.000          20.000
 121671648.707 6  94633536.778 6  22737255.878    22737256.009    22737258.902
        41.000          39.000
 117405780.788 7  91315642.265 6  21994055.049    21994055.134    21994060.544
        44.000          40.000
 126067098.455 6  98234109.77942  23989769.022    23989768.414    23989770.328
        36.000          17.0004
 122527731.916 6  95476176.91045  23316251.068    23316250.344    23316255.449
        40.000          33.0004
 113606990.737 7  88361019.803 3  21312380.335    21312380.383    21312356.106
        46.000          20.000
 125948572.437 5  97960036.027 5  23561286.436    23561285.825    23561291.040
        34.000          31.000
 129951914.640 5 101261244.94244  24729025.315    24729023.201    24729028.698
        35.000          28.0004
 132001721.602 6 102858498.45042  25119092.595    25119091.457    25119094.511
        37.000          15.0004
 22  1  4  8 34  0.0000000  0 17R09G16G09G04R08G26G07G27R06R17R18G20
                                G08R10R01G30G18
 103158552.362 8  80234461.705 8  19318282.556    19318282.901    19318285.147
        52.000          51.000
 110817495.030 8  86351308.52746  21087867.681    21087867.231    21087868.769
        48.000          38.0004
 109336637.290 8  85197393.27848  20806069.859    20806069.665    20806073.295
        51.000          52.0004
 114249915.812 7  89025921.26045  21741036.336    21741036.543    21741039.733
        46.000          33.0004
 109978198.376 7  85538626.537 7  20537651.195    20537651.850    20537654.938
        46.000          47.000
 125538542.838 6  97822253.64243  23889190.197    23889190.422    23889196.322
        39.000          21.0004
 117039768.088 7  91199840.43347  22271927.162    22271927.175    22271928.372
        46.000          44.0004
 115197966.687 7  89764666.14547  21921441.818    21921441.277    21921445.805
        46.000          44.0004
 127648822.682 5  99282456.323 3  23921340.290    23921339.594    23921347.790
        30.000          20.000
 121727359.679 6  94676867.536 6  22747667.005    22747666.759    22747671.614
        41.000          40.000
 117355504.254 7  91276538.340 6  21984636.998    21984636.809    21984641.424
        45.000          40.000
 126049452.985 6  98220360.07242  23986411.286    23986409.929    23986412.358
        36.000          17.0004
 122420527.384 6  95392640.91445  23295850.336    23295849.907    23295855.178
        41.000          33.0004
 113514405.428 7  88289008.650 3  21295011.899    21295011.605    21294995.982
        46.000          20.000
 125826885.103 5  97865390.333 5  23538522.222    23538520.896    23538527.563
        35.000          31.000
 129849715.818 5 101181609.57244  24709575.659    24709574.881    24709580.356
        35.000          26.0004
 131953583.860 6 102820988.47742  25109932.516    25109933.541    25109931.661
        36.000          14.0004
 22  1  4  8 34 30.0000000  0 17R09G16G09G04R08G26G07G27R06R17R18G20
                                G08R10R01G30G18
 103157427.737 8  80233587.008 8  19318072.208    19318072.269    19318074.482
        52.000          50.000
 110876849.441 8  86397558.72146  21099162.635    21099162.000    21099163.703
        48.000          38.0004
 109349986.057 8  85207794.91348  20808610.006    20808609.862    20808613.518
        51.000          53.0004
 114329872.023 7  89088224.77945  21756251.717    21756251.731    21756254.912
        46.000          33.0004
 109936231.197 7  85505985.418 7  20529814.117    20529814.855    20529817.750
        46.000          47.000
 125641905.848 6  97902796.26243  23908860.742    23908860.254    23908864.064
        39.000          21.0004
 116962629.003 7  91139732.09247  22257248.812    22257248.147    22257249.395
        46.000          44.0004
 115131953.175 7  89713227.04947  21908880.008    21908879.466    21908883.798
        45.000          43.0004
 127787700.075 5  99390472.582 3  23947366.375    23947364.793    23947331.416
        30.000          20.000
 121783793.751 6  94720760.727 6  22758212.385    22758211.105    22758215.924
        39.000          39.000
 117305986.172 7  91238024.318 6  21975360.626    21975360.598    21975365.045
        45.000          40.000
 126032379.361 6  98207055.92742  23983161.119    23983161.218    23983162.448
        36.000          17.0004
 122313564.472 6  95309293.21645  23275495.720    23275495.213    23275501.402
        40.000          33.0004
 113422138.906 7  88217245.849 3  21277703.372    21277702.900    21277710.872
        47.000          20.000
 125705510.373 5  97770987.796 5  23515814.078    23515815.165    23515821.198
        35.000          31.000
 129747567.149 5 101102013.24344  24690137.157    24690136.700    24690142.391
        35.000          27.0004
 131905919.319 5 102783847.21242  25100862.933    25100863.163    25100865.735
        35.000          12.0004
 22  1  4  8 35  0.0000000  0 17R09G16G09G04R08G26G07G27R06R17R18G20
                                G08R10R01G30G18
 103156838.765 8  80233128.930 8  19317961.804    19317961.956    19317964.119
        53.000          50.000
 110936700.997 8  86444196.29346  21110552.509    21110551.497    21110552.953
        48.000          38.0004
 109363945.430 8  85218672.34148  20811266.806    20811266.295    20811269.888
        51.000          53.0004
 114410250.818 7  89150857.57545  21771547.240    21771547.244    21771550.509
        46.000          33.0004
 109895060.335 7  85473963.655 7  20522125.684    20522126.622    20522129.415
        46.000          46.000
 125745410.938 6  97983449.59043  23928555.468    23928555.518    23928561.546
        39.000          20.0004
 116885696.791 7  91079784.93747  22242608.737    22242608.243    22242609.512
        45.000          44.0004
 115066506.543 7  89662229.68047  21896425.641    21896425.418    21896429.699
        45.000          44.0004
 127926635.132 5  99498532.682 3  23973398.885    23973400.035    23973369.832
        30.000          20.000
 121840967.582 6  94765229.268 6  22768896.630    22768896.042    22768899.968
        40.000          38.000
 117257248.833 7  91200117.543 6  21966230.036    21966230.502    21966235.142
        45.000          40.000
 126015897.139 6  98194212.66442  23980025.179    23980024.697    23980027.769
        36.000          16.0004
 122206865.761 6  95226151.44845  23255191.696    23255191.413    23255197.125
        41.000          34.0004
 113330211.756 7  88145747.447 3  21260457.758    21260457.838    21260445.471
        47.000          20.000
 125584471.882 5  97676846.779 5  23493172.148    23493171.649    23493179.126
        33.000          32.000
 129645488.799 5 101022471.76244  24670712.734    24670711.740    24670717.832
        35.000          27.0004
 131858749.015 5 102747091.11241  25091885.571    25091885.225    25091889.319
        33.000          11.0004
 22  1  4  8 35 30.0000000  0 17R09G16G09G04R08G26G07G27R06R17R18G20
                                G08R10R01G30G18
 103156768.995 8  80233074.677 8  19317948.457    19317948.899    19317951.110
        52.000          50.000
 110997032.186 8  86491207.61546  21122033.013    21122032.216    21122033.553
        48.000          38.0004
 109378499.770 8  85230013.38048  20814036.301    20814035.903    20814039.437
        50.000          52.0004
 114491034.793 7  89213806.10845  21786919.987    21786919.951    21786923.114
        45.000          33.0004
 109854672.273 7  85442550.736 7  20514583.729    20514584.398    20514587.237
        46.000          46.000
 125849040.711 6  98064200.08043  23948277.178    23948276.365    23948281.163
        38.000          21.0004
 116808957.181 7  91019987.86947  22228005.425    22228005.341    22228006.590
        46.000          44.0004
 115001613.756 7  89611663.88547  21884077.320    21884076.798    21884081.044
        45.000          44.0004
 128065608.813 4  99606623.414 3  23999439.833    23999444.272    23999415.435
        29.000          20.000
 121898862.743 6  94810258.891 6  22779714.439    22779715.379    22779719.406
        40.000          37.000
 117209278.970 7  91162807.688 6  21957244.013    21957244.121    21957248.458
        45.000          40.000
 125999991.014 5  98181818.29642  23976997.452    23976997.075    23977000.899
        35.000          17.0004
 122100418.472 6  95143205.62145  23234935.996    23234935.368    23234940.561
        40.000          34.0004
 113238609.540 7  88074500.898 3  21243273.402    21243273.358    21243272.136
        47.000          20.000
 125463757.922 5  97582958.173 5  23470590.808    23470589.654    23470597.086
        34.000          32.000
 129543466.439 6 100942973.88144  24651298.291    24651297.840    24651303.927
        36.000          28.0004
 131812059.690 5 102710709.84242  25082999.290    25083000.548    25083003.263
        32.000          13.0004
 22  1  4  8 36  0.0000000  0 17R09G16G09G04R08G26G07G27R06R17R18G20
                                G08R10R01G30G18
 103157214.916 8  80233421.514 8  19318032.219    19318032.328    19318034.721
        53.000          49.000
 111057838.198 8  86538588.92246  21133604.057    21133603.031    21133604.596
        48.000          38.0004
 109393646.123 8  85241815.72448  20816918.486    20816918.226    20816921.594
        50.000          52.0004
 114572219.187 7  89277066.65345  21802368.855    21802368.764    21802371.945
        45.000          33.0004
 109815065.888 7  85411745.784 7  20507187.324    20507187.883    20507190.941
        46.000          47.000
 125952790.279 6  98145043.91643  23968019.183    23968018.892    23968023.844
        38.000          21.0004
 116732408.444 7  90960339.53347  22213438.770    22213438.442    22213439.855
        46.000          44.0004
 114937274.542 7  89561529.44247  21871834.071    21871833.381    21871837.650
        45.000          44.0004
 128204615.734 4  99714739.494 3  24025494.369    24025493.947    24025469.537
        29.000          20.000
 121957473.634 6  94855845.146 6  22790669.888    22790669.983    22790672.178
        41.000          38.000
 117162076.226 7  91126094.461 6  21948401.808    21948401.104    21948406.044
        45.000          40.000
 125984658.952 5  98169871.20742  23974080.027    23974079.301    23974082.235
        35.000          16.0004
 121994222.781 6  95060455.86245  23214726.817    23214726.784    23214732.426
        41.000          34.0004
 113147330.321 8  88003505.987 3  21226149.754    21226149.840    21226146.793
        48.000          20.000
 125343369.600 5  97489322.857 5  23448070.140    23448068.818    23448076.272
        35.000          32.000
 129441498.254 6 100863518.22144  24631893.963    24631893.680    24631899.811
        36.000          28.0004
 131765850.340 5 102674702.58341  25074204.883    25074207.008    25074210.139
        31.000          11.0004
 22  1  4  8 36 30.0000000  0 17R09G16G09G04R08G26G07G27R06R17R18G20
                                G08R10R01G30G18
 103158190.346 8  80234180.183 7  19318214.780    19318215.030    19318217.291
        52.000          47.000
 111119130.453 8  86586349.12746  21145267.114    21145266.590    21145268.182
        48.000          38.0004
 109409398.397 8  85254090.22148  20819916.050    20819915.623    20819919.061
        51.000          52.0004
 114653816.138 7  89340648.67445  21817896.093    21817896.278    21817899.625
        45.000          33.0004
 109776257.535 7  85381561.535 7  20499940.359    20499940.773    20499943.642
        46.000          45.000
 126056671.820 6  98225990.60343  23987786.486    23987786.207    23987792.152
        37.000          20.0004
 116656065.841 7  90900851.82847  22198910.987    22198910.935    22198912.319
        46.000          44.0004
 114873505.344 7  89511839.17747  21859698.850    21859698.435    21859702.933
        45.000          44.0004
 128343664.643 4  99822888.671 3  24051552.707    24051551.915    24051560.207
        29.000          20.000
 122016811.843 6  94901997.137 6  22801758.435    22801757.478    22801762.724
        41.000          39.000
 117115657.643 7  91089991.143 6  21939705.448    21939705.155    21939709.953
        45.000          40.000
 125969914.961 6  98158382.38342  23971274.282    23971274.265    23971276.881
        36.000          16.0004
 121888296.223 6  94977915.84745  23194569.223    23194569.587    23194574.722
        40.000          34.0004
 113056390.360 7  87932774.984 3  21209089.624    21209088.963    21209096.220
        47.000          20.000
 125223325.538 5  97395955.332 5  23425610.459    23425612.060    23425619.109
        35.000          31.000
 129339599.476 6 100784116.63244  24612504.374    24612503.824    24612508.674
        36.000          28.0004
 131720137.138 5 102639082.00041  25065508.335    25065509.820    25065512.083
        32.000           9.0004
 22  1  4  8 37  0.0000000  0 17R09G16G09G04R08G26G07G27R06R17R18G20
                                G08R10R01G30G18
 103159688.293 8  80235345.256 8  19318495.254    19318495.531    19318497.788
        53.000          50.000
 111180900.776 8  86634481.84546  21157021.844    21157021.032    21157022.645
        48.000          38.0004
 109425750.228 8  85266831.89848  20823027.432    20823027.301    20823030.725
        51.000          52.0004
 114735817.560 7  89404545.87045  21833500.708    21833500.627    21833503.668
        46.000          32.0004
 109738243.526 7  85351995.102 7  20492841.338    20492841.864    20492845.231
        46.000          46.000
 126160677.252 6  98307033.77343  24007578.430    24007578.247    24007583.400
        38.000          20.0004
 116579924.502 7  90841520.95047  22184422.107    22184421.644    22184422.988
        46.000          44.0004
 114810302.497 7  89462590.22647  21847671.597    21847671.306    21847675.845
        46.000          44.0004
 128482746.748 4  99931064.156 3  24077619.034    24077616.113    24077588.454
        29.000          20.000
 122076868.337 6  94948707.723 6  22812980.550    22812979.842    22812984.070
        40.000          39.000
 117070019.040 7  91054494.462 6  21931156.231    21931156.052    21931159.888
        45.000          40.000
 125955753.243 6  98147347.28742  23968581.443    23968580.172    23968583.017
        36.000          16.0004
 121782635.247 6  94895582.78745  23174463.827    23174462.518    23174468.068
        41.000          34.0004
 112965784.621 8  87862303.900 3  21192091.908    21192091.930    21192099.408
        48.000          20.000
 125103623.104 5  97302853.505 5  23403220.743    23403219.146    23403226.523
        35.000          32.000
 129237765.067 5 100704765.23044  24593124.706    24593124.689    24593130.425
        35.000          29.0004
 131674915.992 5 102603844.80541  25056903.691    25056900.860    25056905.505
        32.000          11.0004
 22  1  4  8 37 30.0000000  0 17R09G16G09G04R08G26G07G27R06R17R18G20
                                G08R10R01G30G18
 103161713.492 8  80236920.422 8  19318874.308    19318874.766    19318877.039
        53.000          51.000
 111243151.497 8  86682988.91046  21168867.780    21168867.220    21168868.579
        48.000          38.0004
 109442706.677 8  85280044.71048  20826254.261    20826253.928    20826257.483
        51.000          52.0004
 114818226.758 7  89468760.81545  21849182.814    21849182.880    21849186.065
        45.000          33.0004
 109701030.957 7  85323052.015 7  20485892.268    20485892.586    20485895.833
        46.000          47.000
 126264809.734 6  98388176.01043  24027395.790    24027394.685    24027399.260
        38.000          20.0004
 116503990.934 7  90782351.96447  22169972.199    22169971.858    22169973.200
        46.000          45.0004
 114747673.652 7  89413788.55747  21835753.903    21835753.510    21835757.947
        46.000          44.0004
 128621864.148 5 100039266.030 3  24103685.776    24103686.247    24103693.276
        30.000          20.000
 122137645.459 6  94995978.829 6  22824337.905    22824337.728    22824342.361
        40.000          39.000
 117025168.554 7  91019610.764 6  21922753.993    21922753.664    21922758.452
        45.000          40.000
 125942179.405 5  98136770.27542  23965996.916    23965996.066    23965999.705
        35.000          16.0004
 121677248.747 6  94813463.61645  23154408.466    23154407.987    23154413.867
        40.000          34.0004
 112875519.061 7  87792097.845 3  21175158.469    21175158.378    21175162.879
        47.000          20.000
 124984272.268 5  97210025.159 5  23380891.137    23380891.183    23380898.456
        34.000          32.000
 129136001.445 5 100625468.95244  24573759.513    24573759.217    24573765.731
        35.000          28.0004
 131630193.802 5 102568996.42542  25048394.446    25048393.807    25048397.780
        35.000          14.0004
 22  1  4  8 38  0.0000000  0 17R09G16G09G04R08G26G07G27R06R17R18G20
                                G08R10R01G30G18
 103164252.870 8  80238895.500 8  19319349.857    19319350.359    19319352.560
        53.000          50.000
 111305868.195 8  86731859.06546  21180802.592    21180801.825    21180803.217
        48.000          38.0004
 109460255.057 8  85293718.76548  20829593.802    20829593.438    20829596.821
        51.000          53.0004
 114901029.346 7  89533282.29445  21864939.368    21864939.594    21864942.703
        45.000          33.0004
 109664609.033 7  85294723.867 7  20479090.846    20479091.348    20479094.386
        46.000          47.000
 126369055.070 6  98469406.13743  24047231.452    24047230.935    24047237.363
        37.000          20.0004
 116428253.733 7  90723335.99747  22155559.571    22155559.634    22155560.965
        45.000          44.0004
 114685608.760 7  89365426.33247  21823943.335    21823942.853    21823947.468
        46.000          45.0004
 128761000.353 5 100147483.667 3  24129760.381    24129761.298    24129737.284
        30.000          20.000
 122199128.059 6  95043798.642 6  22835826.446    22835826.281    22835832.217
        40.000          40.000
 116981095.526 7  90985331.753 6  21914497.745    21914497.357    21914501.833
        45.000          40.000
 125929181.273 6  98126641.85042  23963524.986    23963523.224    23963526.863
        37.000          17.0004
 121572127.497 6  94731551.11545  23134404.894    23134403.844    23134409.458
        40.000          34.0004
 112785583.273 8  87722147.456 3  21158286.766    21158286.435    21158294.266
        48.000          20.000
 124865263.993 5  97117463.254 5  23358629.553    23358628.768    23358635.355
        34.000          31.000
 129034297.202 5 100546218.94444  24554406.219    24554406.179    24554411.489
        35.000          28.0004
 131585960.176 5 102534528.70042  25039976.055    25039976.601    25039979.661
        35.000          14.0004
 22  1  4  8 38 30.0000000  0 17R09G16G09G04R08G26G07G27R06R17R18G20
                                G08R10R01G30G18
 103167306.122 8  80241270.266 8  19319921.768    19319922.110    19319924.497
        52.000          51.000
 111369048.900 8  86781090.79146  21192825.118    21192824.544    21192826.026
        48.000          37.0004
 109478395.665 8  85307854.29748  20833045.869    20833045.414    20833048.954
        51.000          52.0004
 114984223.851 7  89598109.16945  21880771.107    21880771.159    21880774.026
        45.000          32.0004
 109628980.544 7  85267012.840 7  20472437.713    20472437.929    20472440.753
        46.000          47.000
 126473411.744 6  98550723.01343  24067089.869    24067089.445    24067095.691
        38.000          20.0004
 116352714.591 7  90664474.35947  22141184.754    22141185.074    22141186.038
        46.000          44.0004
 114624110.761 7  89317505.84947  21812240.675    21812240.130    21812244.654
        45.000          44.0004
 128900152.749 4 100255712.771 3  24155832.712    24155836.610    24155808.089
        29.000          20.000
 122261313.578 6  95092165.146 6  22847446.933    22847447.576    22847450.777
        39.000          38.000
 116937803.401 7  90951660.131 6  21906387.038    21906387.067    21906391.843
        45.000          40.000
 125916759.630 6  98116962.63942  23961161.376    23961159.772    23961161.051
        37.000          17.0004
 121467274.923 6  94649847.95945  23114451.689    23114450.983    23114456.710
        40.000          35.0004
 112695978.847 7  87652455.199 3  21141476.304    21141476.485    21141483.804
        47.000          20.000
 124746602.969 6  97025171.406 5  23336432.484    23336431.499    23336437.475
        36.000          31.000
 128932654.089 6 100467016.55844  24535066.050    24535064.195    24535069.338
        36.000          29.0004
 131542217.612 6 102500443.58342  25031652.766    25031652.970    25031654.317
        36.000          15.0004
 22  1  4  8 39  0.0000000  0 17R09G16G09G04R08G26G07G27R06R17R18G20
                                G08R10R01G30G18
 103170886.101 8  80244054.703 8  19320592.380    19320592.517    19320594.697
        53.000          51.000
 111432704.484 8  86830692.54746  21204938.410    21204937.755    21204939.320
        48.000          38.0004
 109497141.257 8  85322461.24448  20836612.960    20836612.688    20836616.216
        51.000          53.0004
 115067821.416 7  89663250.10945  21896679.096    21896678.856    21896682.009
        45.000          32.0004
 109594160.517 7  85239930.609 7  20465934.930    20465935.614    20465938.154
        47.000          47.000
 126577890.948 6  98632135.36543  24086971.679    24086970.658    24086977.037
        37.000          19.0004
 116277388.038 7  90605778.36847  22126851.507    22126850.894    22126851.970
        46.000          45.0004
 114563195.083 7  89270039.12747  21800648.413    21800648.206    21800652.576
        46.000          45.0004
 129039330.901 4 100363962.380 3  24181916.957    24181919.264    24181888.593
        28.000          20.000
 122324212.394 6  95141086.464 6  22859202.183    22859201.887    22859206.228
        40.000          39.000
 116895307.490 7  90918607.776 6  21898426.589    21898426.307    21898431.525
        45.000          40.000
 125904927.728 6  98107742.94942  23958910.100    23958908.913    23958909.963
        37.000          17.0004
 121362707.177 6  94568366.73945  23094551.625    23094552.092    23094557.761
        40.000          34.0004
 112606719.777 7  87583031.704 3  21124732.329    21124731.918    21124737.718
        47.000          20.000
 124628306.749 5  96933163.300 5  23314302.547    23314301.673    23314307.237
        35.000          31.000
 128831086.193 6 100387872.78244  24515737.499    24515736.161    24515741.814
        36.000          29.0004
 131498981.004 6 102466752.73843  25023424.726    25023424.956    25023427.036
        39.000          18.0004
 22  1  4  8 39 30.0000000  0 17R09G16G09G04R08G26G07G27R06R17R18G20
                                G08R10R01G30G18
 103174986.919 8  80247244.244 8  19321360.369    19321360.426    19321362.576
        53.000          50.000
 111496827.665 8  86880658.67646  21217140.726    21217139.977    21217141.554
        48.000          38.0004
 109516486.764 8  85337535.66148  20840294.335    20840293.893    20840297.507
        51.000          52.0004
 115151815.247 7  89728699.83045  21912662.622    21912662.274    21912665.535
        45.000          32.0004
 109560146.076 7  85213474.954 7  20459582.442    20459583.497    20459586.373
        46.000          47.000
 126682486.016 6  98713637.99743  24106874.765    24106874.665    24106880.502
        37.000          19.0004
 116202270.247 7  90547245.05947  22112556.732    22112556.456    22112557.394
        46.000          45.0004
 114502859.209 7  89223024.20447  21789167.159    21789166.662    21789171.016
        46.000          45.0004
 129178525.887 4 100472225.520 3  24208004.043    24208003.579    24207973.080
        28.000          20.000
 122387816.746 6  95190556.501 6  22871089.199    22871088.622    22871093.378
        41.000          40.000
 116853605.476 7  90886172.890 6  21890613.829    21890614.018    21890618.711
        45.000          41.000
 125893680.803 5  98098979.15042  23956767.726    23956767.143    23956771.495
        35.000          16.0004
 121258422.221 6  94487105.86445  23074707.722    23074707.152    23074713.118
        40.000          34.0004
 112517802.771 7  87513874.074 3  21108051.557    21108051.135    21108055.842
        47.000          20.000
 124510374.188 6  96841438.039 5  23292240.321    23292239.587    23292245.457
        36.000          31.000
 128729590.058 5 100308784.90345  24496422.436    24496421.849    24496428.200
        35.000          30.0004
 131456247.421 6 102433453.83943  25015293.493    25015293.665    25015294.782
        38.000          18.0004
 22  1  4  8 40  0.0000000  0 16R09G16G09G04R08G26G07G27R17R18G20G08
                                R10R01G30G18
 103179592.256 8  80250826.168 8  19322222.912    19322222.974    19322225.061
        53.000          50.000
 111561400.505 8  86930975.17446  21229428.381    21229427.875    21229429.332
        48.000          37.0004
 109536416.294 8  85353065.16648  20844086.892    20844086.378    20844089.922
        50.000          53.0004
 115236187.722 7  89794444.59545  21928717.683    21928717.854    21928721.224
        45.000          32.0004
 109526922.856 7  85187634.687 7  20453378.216    20453379.042    20453382.228
        46.000          47.000
 126787179.383 6  98795217.25043  24126798.712    24126797.928    24126802.857
        38.000          19.0004
 116127347.080 7  90488863.40047  22098299.141    22098298.947    22098299.957
        46.000          45.0004
 114443089.918 7  89176450.77847  21777793.519    21777793.016    21777797.346
        46.000          45.0004
 122452107.679 6  95240560.565 6  22883101.841    22883102.288    22883106.677
        40.000          39.000
 116812683.327 7  90854344.574 6  21882948.450    21882948.039    21882953.367
        45.000          41.000
 125883003.432 6  98090659.11342  23954736.611    23954735.788    23954738.449
        36.000          16.0004
 121154407.801 6  94406055.77945  23054914.905    23054913.852    23054919.768
        39.000          34.0004
 112429213.403 7  87444971.797 3  21091431.783    21091432.046    21091438.171
        47.000          20.000
 124392793.796 6  96749986.682 5  23270244.784    23270243.797    23270250.650
        36.000          32.000
 128628151.088 6 100229741.58245  24477119.499    24477119.232    24477124.644
        37.000          30.0004
 131414003.134 6 102400536.24943  25007253.278    25007253.239    25007255.340
        36.000          18.0004
 22  1  4  8 40 30.0000000  0 17R09G16G09G04R08G26G07G27G05R17R18G20
                                G08R10R01G30G18
 103184717.890 8  80254812.770 8  19323182.465    19323182.646    19323184.884
        53.000          50.000
 111626436.480 8  86981652.56446  21241804.600    21241803.610    21241805.336
        48.000          37.0004
 109556945.433 8  85369061.90148  20847993.017    20847992.895    20847996.407
        50.000          52.0004
 115320952.847 7  89860495.32345  21944848.267    21944848.124    21944851.239
        45.000          31.0004
 109494509.463 7  85162424.288 7  20447325.648    20447326.425    20447329.329
        46.000          47.000
 126891985.202 6  98876884.07843  24146741.864    24146741.203    24146747.348
        36.000          19.0004
 116052635.549 7  90430646.65847  22084082.626    22084081.941    22084082.755
        46.000          45.0004
 114383905.436 7  89130333.04947  21766531.018    21766530.564    21766534.867
        46.000          45.0004
 130867601.644 5                  24903277.049
        34.000
 122517098.609 6  95291109.033 6  22895247.948    22895247.775    22895252.898
        40.000          40.000
 116772559.811 7  90823137.414 6  21875430.921    21875431.181    21875436.655
        44.000          41.000
 125872911.708 5  98082795.43842  23952815.552    23952814.561    23952819.291
        35.000          17.0004
 121050683.243 6  94325231.51745  23035175.554    23035175.786    23035181.377
        39.000          34.0004
 112340969.045 7  87376336.938 3  21074878.046    21074877.753    21074883.576
        47.000          20.000
 124275585.732 6  96658824.927 5  23248316.320    23248316.830    23248324.414
        36.000          32.000
 128526786.432 6 100150756.15845  24457830.042    24457829.753    24457835.774
        37.000          32.0004
 131372265.974 6 102368013.80342  24999312.281    24999311.831    24999314.236
        36.000          17.0004
 22  1  4  8 41  0.0000000  0 17R09G16G09G04R08G26G07G27G05R17R18G20
                                G08R10R01G30G18
 103190367.241 8  80259206.714 8  19324240.486    19324240.763    19324242.948
        53.000          49.000
 111691937.390 8  87032692.23346  21254268.769    21254268.089    21254269.577
        48.000          37.0004
 109578077.941 8  85385528.79248  20852014.949    20852014.349    20852017.802
        50.000          53.0004
 115406112.718 7  89926853.64545  21961053.396    21961053.407    21961056.809
        45.000          31.0004
 109462911.710 7  85137848.275 7  20441425.762    20441425.582    20441428.244
        47.000          46.000
 126996905.611 6  98958640.20943  24166709.561    24166708.224    24166712.623
        38.000          20.0004
 115978140.980 7  90372598.97547  22069906.397    22069905.874    22069907.137
        47.000          45.0004
 114325312.213 7  89084676.03847  21755381.005    21755380.522    21755384.814
        46.000          45.0004
 130806669.670 6 101927288.82742  24891681.273    24891681.410    24891683.396
        36.000          17.0004
 122582790.733 6  95342202.916 6  22907523.168    22907523.814    22907527.284
        40.000          38.000
 116733241.161 7  90792556.266 6  21868065.878    21868065.681    21868070.998
        45.000          41.000
 125863410.012 6  98075391.51742  23951007.885    23951006.859    23951010.962
        36.000          17.0004
 120947255.290 6  94244638.36845  23015494.475    23015493.746    23015499.936
        40.000          35.0004
 112253075.536 7  87307975.427 3  21058389.154    21058389.224    21058382.087
        47.000          20.000
 124158758.737 6  96567959.520 5  23226462.920    23226462.615    23226468.711
        36.000          32.000
 128425501.505 6 100071832.86545  24438556.053    24438556.084    24438561.641
        37.000          32.0004
 131331041.939 5 102335891.12342  24991464.731    24991466.206    24991468.829
        34.000          15.0004
 22  1  4  8 41 30.0000000  0 17R09G16G09G04R08G26G07G27G05R17R18G20
                                G08R10R01G30G18
 103196522.783 8  80263994.364 7  19325393.405    19325393.431    19325395.656
        53.000          47.000
 111757884.974 7  87084079.96746  21266818.047    21266817.447    21266819.223
        47.000          37.0004
 109599797.150 8  85402452.84948  20856147.676    20856147.318    20856150.882
        51.000          52.0004
 115491648.994 7  89993505.26745  21977330.825    21977330.693    21977333.976
        44.000          31.0004
 109432114.689 7  85113895.058 7  20435674.006    20435674.551    20435677.308
        46.000          46.000
 127101922.501 6  99040471.54643  24186692.425    24186690.758    24186696.545
        37.000          19.0004
 115903848.315 7  90314708.61947  22055768.655    22055768.469    22055769.670
        47.000          45.0004
 114267296.125 7  89039468.74147  21744341.078    21744340.478    21744344.713
        46.000          45.0004
 130746226.453 5 101880190.19642  24880179.334    24880179.423    24880182.267
        35.000          17.0004
 122649164.258 7  95393826.766 6  22919928.378    22919928.531    22919932.466
        42.000          40.000
 116694713.182 7  90762590.102 6  21860848.533    21860848.075    21860853.285
        46.000          41.000
 125854482.279 5  98068434.84342  23949308.619    23949308.220    23949311.373
        35.000          16.0004
 120844111.231 6  94164266.40745  22995866.435    22995866.300    22995872.121
        40.000          35.0004
 112165517.367 8  87239874.599 3  21041963.891    21041963.257    21041971.391
        48.000          20.000
 124042299.663 6  96477380.322 5  23204677.396    23204676.247    23204682.538
        36.000          32.000
 128324281.036 6  99992959.81945  24419295.402    24419294.661    24419299.842
        37.000          32.0004
 131290316.485 5 102304157.05042  24983716.797    24983715.568    24983718.983
        34.000          15.0004
 22  1  4  8 42  0.0000000  0 17R09G16G09G04R08G26G07G27G05R17R18G20
                                G08R10R01G30G18
 103203196.482 8  80269185.025 8  19326642.972    19326643.266    19326645.330
        53.000          50.000
 111824288.671 8  87135823.10346  21279454.346    21279453.651    21279455.383
        48.000          37.0004
 109622114.886 8  85419843.29748  20860394.639    20860394.298    20860397.788
        51.000          53.0004
 115577571.915 7  90060458.17345  21993681.456    21993681.234    21993684.267
        45.000          31.0004
 109402132.090 7  85090575.277 7  20430074.583    20430075.053    20430078.321
        46.000          46.000
 127207046.296 6  99122386.15143  24206695.928    24206695.311    24206699.966
        37.000          18.0004
 115829771.214 7  90256986.23347  22041672.646    22041672.053    22041673.222
        47.000          45.0004
 114209871.721 7  88994722.49047  21733413.185    21733412.851    21733417.178
        47.000          45.0004
 130686286.438 5 101833483.69142  24868773.947    24868773.921    24868776.789
        34.000          16.0004
 122716228.804 6  95445988.074 6  22932460.177    22932459.027    22932464.458
        40.000          39.000
 116656990.280 7  90733250.105 6  21853781.649    21853781.119    21853786.367
        45.000          41.000
 125846140.665 6  98061934.89643  23947722.821    23947721.297    23947723.473
        38.000          18.0004
 120741266.266 6  94084127.50745  22976295.750    22976295.516    22976301.351
        40.000          34.0004
 112078307.811 8  87172045.493 3  21025602.707    21025602.910    21025585.599
        48.000          20.000
 123926225.410 6  96387100.390 5  23182962.095    23182961.786    23182968.938
        36.000          32.000
 128223138.489 6  99914147.48645  24400048.919    24400047.509    24400052.949
        38.000          32.0004
 131250103.760 5 102272822.44942  24976063.479    24976064.934    24976068.717
        35.000          15.0004
 22  1  4  8 42 30.0000000  0 17R09G16G09G04R08G26G07G27G05R17R18G20
                                G08R10R01G30G18
 103210379.536 8  80274771.847 8  19327988.330    19327988.289    19327990.442
        53.000          51.000
 111891138.174 7  87187913.62346  21292175.705    21292174.754    21292176.248
        47.000          37.0004
 109645022.794 8  85437693.61648  20864753.585    20864753.469    20864757.121
        51.000          52.0004
 115663871.472 7  90127704.55345  22010103.598    22010103.618    22010106.697
        45.000          31.0004
 109372958.407 7  85067884.646 7  20424626.993    20424627.477    20424630.153
        46.000          47.000
 127312267.127 6  99204376.39143  24226720.148    24226719.633    24226724.166
        37.000          19.0004
 115755902.819 7  90199426.47547  22027615.584    22027615.264    22027616.708
        47.000          45.0004
 114153033.245 7  88950432.81847  21722596.782    21722596.740    21722601.181
        45.000          45.0004
 130626843.389 5 101787164.43642  24857460.422    24857460.998    24857464.435
        35.000          15.0004
 122783973.088 7  95498678.067 6  22945120.777    22945121.145    22945123.996
        42.000          39.000
 116620066.402 7  90704531.565 6  21846864.333    21846863.931    21846869.151
        46.000          41.000
 125838377.199 6  98055885.46343  23946246.304    23946245.286    23946246.381
        37.000          18.0004
 120638715.522 6  94004217.85645  22956781.393    22956780.849    22956786.273
        40.000          34.0004
 111991440.359 8  87104481.518 3  21009307.445    21009307.186    21009314.945
        48.000          20.000
 123810531.903 6  96297116.621 5  23161318.761    23161318.909    23161326.270
        37.000          33.000
 128122067.083 6  99835390.59445  24380814.343    24380814.330    24380820.237
        38.000          33.0004
 131210397.480 5 102241882.48242  24968507.899    24968508.842    24968511.939
        33.000          15.0004
 22  1  4  8 43  0.0000000  0 17R09G16G09G04R08G26G07G27G05R17R18G20
                                G08R10R01G30G18
 103218071.790 8  80280754.714 8  19329428.751    19329428.832    19329431.075
        53.000          50.000
 111958431.856 8  87240350.25346  21304981.132    21304980.245    21304981.797
        48.000          37.0004
 109668521.011 8  85456003.91148  20869225.511    20869225.055    20869228.694
        51.000          53.0004
 115750546.289 7  90195243.35145  22026597.129    22026597.498    22026600.471
        45.000          31.0004
 109344595.264 7  85045824.435 7  20419330.363    20419330.550    20419334.031
        46.000          47.000
 127417583.663 6  99286441.20843  24246759.921    24246759.329    24246765.261
        37.000          19.0004
 115682245.066 7  90142030.84247  22013598.826    22013598.776    22013599.954
        47.000          45.0004
 114096783.555 7  88906601.93547  21711893.220    21711892.764    21711897.290
        46.000          45.0004
 130567899.483 6 101741234.08242  24846246.177    24846245.262    24846248.163
        36.000          16.0004
 122852394.592 6  95551894.771 6  22957905.272    22957905.607    22957910.206
        41.000          39.000
 116583944.058 7  90676436.441 6  21840098.025    21840097.133    21840101.770
        45.000          41.000
 125831192.520 6  98050287.02442  23944877.439    23944876.666    23944879.444
        36.000          16.0004
 120536462.679 6  93924540.32245  22937323.207    22937323.002    22937328.314
        41.000          34.0004
 111904917.070 8  87037185.587 3  20993075.324    20993075.182    20993082.824
        48.000          20.000
 123695224.069 6  96207432.809 5  23139750.388    23139748.791    23139755.474
        37.000          32.000
 128021068.605 6  99756690.52345  24361596.083    24361595.546    24361600.580
        38.000          33.0004
 131171199.981 5 102211339.05742  24961047.760    24961048.865    24961049.665
        32.000          14.0004
 22  1  4  8 43 30.0000000  0 17R09G16G09G04R08G26G07G27G05R17R18G20
                                G08R10R01G30G18
 103226285.304 8  80287143.019 8  19330966.652    19330967.011    19330969.147
        52.000          51.000
 112026179.046 7  87293140.27246  21317872.720    21317872.127    21317873.714
        47.000          37.0004
 109692621.391 8  85474783.43048  20873811.540    20873811.223    20873814.815
        51.000          52.0004
 115837606.588 7  90263082.53145  22043164.416    22043164.410    22043167.361
        45.000          31.0004
 109317056.928 7  85024405.739 7  20414187.866    20414188.284    20414191.186
        46.000          47.000
 127523006.597 6  99368588.92743  24266821.254    24266820.806    24266826.169
        36.000          18.0004
 115608811.252 7  90084809.71847  21999624.816    21999624.816    21999625.975
        46.000          45.0004
 114041137.067 7  88863241.09447  21701304.184    21701303.612    21701307.968
        47.000          45.0004
 130509471.413 5 101695705.68742  24835127.268    24835126.331    24835128.337
        34.000          16.0004
 122921502.784 6  95605645.590 6  22970821.386    22970821.136    22970824.909
        41.000          39.000
 116548637.987 7  90648976.201 6  21833482.518    21833482.849    21833487.820
        45.000          41.000
 125824598.847 6  98045149.12142  23943622.448    23943622.187    23943624.166
        36.000          17.0004
 120434523.320 6  93845107.05945  22917924.266    22917924.384    22917929.580
        40.000          34.0004
 111818751.467 7  86970168.340 3  20976910.873    20976910.656    20976895.302
        47.000          20.000
 123580318.338 6  96118061.752 5  23118252.122    23118253.317    23118259.305
        37.000          32.000
 127920156.521 6  99678057.77045  24342392.693    24342392.202    24342397.408
        38.000          32.0004
 131132525.408 5 102181203.01342  24953687.937    24953689.952    24953692.629
        32.000          12.0004
 22  1  4  8 44  0.0000000  0 17R09G16G09G04R08G26G07G27G05R17R18G20
                                G08R10R01G30G18
 103234996.503 8  80293918.411 8  19332598.046    19332598.305    19332600.625
        53.000          51.000
 112094355.538 8  87346264.80546  21330846.201    21330845.893    21330847.310
        48.000          37.0004
 109717301.125 8  85494014.38948  20878507.918    20878507.626    20878511.233
        51.000          52.0004
 115925028.006 7  90331203.10145  22059799.807    22059800.126    22059802.828
        45.000          31.0004
 109290322.389 7  85003612.219 7  20409194.658    20409195.350    20409198.755
        46.000          47.000
 127628511.609 6  99450800.60143  24286900.136    24286897.624    24286902.982
        37.000          18.0004
 115535580.719 7  90027746.99147  21985689.515    21985689.301    21985690.587
        47.000          46.0004
 113986073.635 7  88820334.57847  21690825.754    21690825.311    21690829.541
        47.000          45.0004
 130451536.707 5 101650561.76742  24824102.639    24824101.375    24824104.528
        35.000          15.0004
 122991271.723 6  95659910.294 6  22983858.132    22983858.694    22983862.694
        41.000          40.000
 116514127.145 7  90622134.468 6  21827018.232    21827018.230    21827023.095
        46.000          41.000
 125818573.888 6  98040454.34942  23942476.660    23942474.583    23942478.263
        37.000          17.0004
 120332877.891 6  93765902.83045  22898582.402    22898581.929    22898587.053
        41.000          35.0004
 111732922.265 8  86903412.386 3  20960809.973    20960809.506    20960789.514
        48.000          20.000
 123465796.273 6  96028989.104 5  23096830.296    23096829.382    23096835.924
        37.000          32.000
 127819309.765 6  99599475.92045  24323202.579    24323202.074    24323207.620
        38.000          33.0004
 131094352.994 5 102151458.32842  24946425.479    24946425.855    24946427.769
        32.000          12.0004
 22  1  4  8 44 30.0000000  0 17R09G16G09G04R08G26G07G27G05R17R18G20
                                G08R10R01G30G18
 103244228.366 8  80301098.767 8  19334326.727    19334327.037    19334329.339
        52.000          50.000
 112162982.599 7  87399740.43246  21343905.978    21343905.156    21343906.576
        47.000          37.0004
 109742583.325 8  85513714.80548  20883319.031    20883318.611    20883322.098
        50.000          52.0004
 116012832.079 7  90399621.84045  22076508.915    22076508.987    22076511.580
        45.000          31.0004
 109264416.870 7  84983463.493 7  20404357.456    20404357.794    20404360.911
        46.000          47.000
 127734120.469 6  99533093.21143  24306995.215    24306995.048    24307000.793
        38.000          19.0004
 115462578.051 7  89970861.81847  21971797.513    21971797.462    21971798.640
        46.000          46.0004
 113931619.034 7  88777902.48347  21680463.613    21680462.990    21680467.241
        46.000          46.0004
 130394121.501 5 101605822.64842  24813177.334    24813176.344    24813177.808
        35.000          16.0004
 123061722.126 6  95714705.040 6  22997023.814    22997023.392    22997029.181
        40.000          40.000
 116480437.511 7  90595931.455 6  21820707.039    21820707.017    21820711.977
        46.000          41.000
 125813141.142 5  98036221.06842  23941440.680    23941440.803    23941445.041
        35.000          16.0004
 120231553.485 6  93686948.72845  22879300.832    22879300.610    22879306.005
        41.000          35.0004
 111647454.840 7  86836937.714 3  20944776.721    20944776.020    20944741.656
        47.000          20.000
 123351685.724 6  95940236.537 5  23075484.891    23075482.287    23075489.196
        37.000          32.000
 127718553.092 6  99520964.25845  24304028.699    24304027.815    24304033.570
        37.000          32.0004
 131056708.237 5 102122124.74142  24939262.463    24939263.308    24939265.565
        34.000          14.0004
 22  1  4  8 45  0.0000000  0 17R09G16G09G04R08G26G07G27G05R17R18G20
                                G08R10R01G30G18
 103253964.114 8  80308671.026 8  19336150.065    19336150.253    19336152.513
        53.000          49.000
 112232041.123 8  87453552.25946  21357047.252    21357046.441    21357048.051
        48.000          37.0004
 109768451.162 8  85533871.55748  20888241.214    20888241.089    20888244.728
        51.000          52.0004
 116101000.479 7  90468324.47845  22093286.993    22093286.715    22093289.690
        45.000          31.0004
 109239325.225 7  84963947.776 7  20399671.465    20399672.106    20399675.333
        46.000          46.000
 127839815.191 6  99615452.72943  24327107.375    24327107.392    24327113.757
        37.000          18.0004
 115389788.256 7  89914142.51747  21957946.446    21957945.927    21957947.255
        47.000          46.0004
 113877759.038 7  88735933.70847  21670214.276    21670213.722    21670217.961
        47.000          46.0004
 130337212.076 5 101561477.63642  24802348.151    24802347.097    24802350.309
        35.000          17.0004
 123132834.419 6  95770014.544 6  23010314.126    23010314.094    23010316.853
        41.000          39.000
 116447554.648 7  90570355.918 6  21814546.283    21814546.540    21814551.819
        45.000          41.000
 125808284.406 6  98032436.59942  23940517.961    23940517.479    23940518.525
        36.000          16.0004
 120130535.902 6  93608233.70345  22860078.238    22860077.432    22860082.870
        41.000          35.0004
 111562333.878 8  86770732.014 3  20928808.056    20928807.346    20928781.664
        48.000          20.000
 123237974.465 6  95851794.521 5  23054211.186    23054210.452    23054218.088
        37.000          33.000
 127617871.431 6  99442511.06245  24284869.783    24284869.655    24284874.755
        38.000          33.0004
 131019576.515 6 102093190.92442  24932196.928    24932197.051    24932198.045
        36.000          14.0004
 22  1  4  8 45 30.0000000  0 17R09G16G09G04R08G26G07G27G05R17R18G20
                                G08R10R01G30G18
 103264219.993 8  80316647.837 8  19338070.938    19338070.833    19338072.986
        53.000          50.000
 112301546.089 7  87507711.96646  21370273.871    21370272.727    21370274.339
        47.000          36.0004
 109794921.309 8  85554497.64548  20893278.495    20893278.250    20893281.852
        51.000          52.0004
 116189548.301 7  90537322.77445  22110137.163    22110136.709    22110139.471
        45.000          30.0004
 109215067.013 7  84945080.285 7  20395142.596    20395142.603    20395145.254
        47.000          47.000
 127945611.134 6  99697891.10942  24347240.838    24347240.362    24347245.955
        37.000          17.0004
 115317229.783 7  89857603.47447  21944138.742    21944138.616    21944139.805
        46.000          46.0004
 113824512.964 7  88694443.31947  21660081.355    21660081.269    21660085.591
        46.000          46.0004
 130280827.373 5 101517541.51042  24791617.502    24791617.176    24791620.635
        34.000          16.0004
 123204622.915 6  95825850.055 6  23023727.633    23023727.835    23023732.120
        40.000          38.000
 116415497.817 7  90545422.857 6  21808541.227    21808541.154    21808546.530
        45.000          41.000
 125804020.639 6  98029114.19442  23939706.855    23939705.570    23939709.209
        37.000          17.0004
 120029846.437 6  93529774.36045  22840917.619    22840916.786    22840922.557
        40.000          35.0004
 111477577.456 8  86704810.291 3  20912907.584    20912907.454    20912915.084
        48.000          20.000
 123124683.977 6  95763679.787 5  23033016.505    23033017.019    23033023.142
        37.000          33.000
 127517283.274 6  99364130.72045  24265727.442    24265727.426    24265733.041
        37.000          32.0004
 130982976.609 6 102064671.52342  24925233.095    24925232.035    24925233.487
        36.000          17.0004
 22  1  4  8 46  0.0000000  0 17R09G16G09G04R08G26G07G27G05R17R18G20
                                G08R10R01G30G18
 103274968.257 8  80325007.615 7  19340083.552    19340083.633    19340085.902
        52.000          47.000
 112371468.757 7  87562197.16246  21383579.312    21383578.644    21383580.109
        47.000          36.0004
 109821966.376 8  85575571.72248  20898425.039    20898424.805    20898428.366
        51.000          52.0004
 116278446.637 7  90606594.17945  22127053.486    22127053.513    22127056.182
        45.000          30.0004
 109191615.802 7  84926840.458 7  20390762.532    20390762.896    20390765.917
        46.000          45.000
 128051479.598 6  99780386.03843  24367385.613    24367386.009    24367391.969
        37.000          18.0004
 115244877.210 7  89801224.86847  21930370.619    21930370.273    21930371.378
        47.000          46.0004
 113771856.104 7  88653412.04247  21650061.472    21650060.971    21650065.368
        47.000          46.0004
 130224942.210 5 101473994.63342  24780984.385    24780983.642    24780984.219
        34.000          15.0004
 123277056.824 6  95882187.506 6  23037263.871    23037263.863    23037268.944
        40.000          38.000
 116384241.477 7  90521112.391 6  21802686.486    21802685.936    21802691.018
        46.000          41.000
 125800323.122 6  98026233.03042  23939002.442    23939001.581    23939005.907
        36.000          16.0004
 119929461.377 6  93451552.22845  22821814.907    22821814.320    22821819.752
        40.000          35.0004
 111393160.571 8  86639152.694 3  20897071.245    20897070.914    20897055.079
        48.000          20.000
 123011791.285 6  95675874.415 5  23011898.913    23011898.650    23011905.334
        38.000          33.000
 127416762.990 6  99285803.29945  24246601.265    24246599.574    24246604.504
        38.000          32.0004
 130946883.396 5 102036546.94542  24918364.217    24918364.507    24918366.338
        35.000          16.0004
 22  1  4  8 46 30.0000000  0 17R09G16G09G04R08G26G07G27G05R17R18G20
                                G08R10R01G30G18
 103286225.065 8  80333762.929 8  19342191.445    19342191.690    19342193.797
        52.000          48.000
 112441822.629 8  87617018.35746  21396967.391    21396966.630    21396968.157
        48.000          36.0004
 109849602.496 8  85597106.37048  20903684.305    20903683.902    20903687.348
        50.000          52.0004
 116367710.151 7  90676150.15145  22144040.116    22144040.066    22144042.873
        45.000          30.0004
 109168990.169 7  84909242.751 7  20386536.714    20386537.628    20386540.865
        46.000          46.000
 128157435.630 6  99862949.18842  24387548.118    24387548.689    24387553.145
        36.000          17.0004
 115172748.528 7  89745020.72147  21916644.668    21916644.609    21916645.964
        46.000          45.0004
 113719807.119 7  88612854.43447  21640156.403    21640156.311    21640160.698
        46.000          46.0004
 130169575.449 5 101430851.75542  24770446.795    24770445.959    24770448.539
        33.000          14.0004
 123350150.075 6  95939037.810 6  23050922.908    23050923.409    23050926.132
        40.000          37.000
 116353804.210 7  90497438.982 6  21796984.412    21796984.051    21796988.755
        45.000          41.000
 125797208.175 5  98023805.80242  23938410.526    23938409.483    23938412.410
        35.000          16.0004
 119829400.154 6  93373582.43645  22802773.595    22802773.058    22802778.865
        41.000          35.0004
 111309101.052 8  86573773.083 3  20881302.206    20881301.979    20881309.706
        48.000          20.000
 122899317.157 6  95588394.617 5  22990859.126    22990857.794    22990864.520
        38.000          33.000
 127316328.461 6  99207542.68445  24227487.644    24227487.474    24227492.474
        38.000          32.0004
 130911315.234 5 102008831.53742  24911595.273    24911594.028    24911598.111
        35.000          14.0004
 22  1  4  8 47  0.0000000  0 17R09G16G09G04R08G26G07G27G05R17R18G20
                                G08R10R01G30G18
 103297993.667 8  80342916.304 8  19344395.605    19344395.638    19344397.657
        53.000          51.000
 112512609.369 7  87672176.85646  21410437.713    21410436.720    21410438.262
        47.000          36.0004
 109877832.953 8  85619104.12848  20909056.300    20909055.869    20909059.346
        50.000          52.0004
 116457340.620 7  90745992.05245  22161096.265    22161095.620    22161098.979
        45.000          30.0004
 109147195.509 7  84892291.354 7  20382466.667    20382467.481    20382470.578
        47.000          47.000
 128263481.292 6  99945582.16242  24407729.770    24407727.909    24407733.628
        36.000          17.0004
 115100848.726 7  89688994.92547  21902962.892    21902962.592    21902963.689
        46.000          46.0004
 113668372.027 7  88572775.17647  21630369.165    21630368.519    21630372.903
        46.000          46.0004
 130114732.332 5 101388116.88942  24760011.412    24760012.018    24760013.108
        35.000          15.0004
 123423903.442 6  95996401.532 6  23064705.818    23064705.966    23064711.931
        40.000          38.000
 116324191.926 7  90474407.205 7  21791437.184    21791436.874    21791441.556
        46.000          42.000
 125794679.859 5  98021835.67742  23937929.134    23937927.883    23937931.610
        35.000          16.0004
 119729669.970 6  93295870.59745  22783795.146    22783795.191    22783800.788
        41.000          35.0004
 111225403.765 8  86508675.147 3  20865600.008    20865599.972    20865607.508
        48.000          20.000
 122787269.915 6  95501246.812 5  22969898.200    22969897.027    22969902.151
        38.000          32.000
 127215984.835 6  99129352.92645  24208393.972    24208392.576    24208398.145
        37.000          33.0004
 130876277.539 6 101981529.40942  24904928.739    24904927.355    24904928.041
        37.000          13.0004
 22  1  4  8 47 30.0000000  0 17R09G16G09G04R08G26G07G27G05R17R18G20
                                G08R10R01G30G18
 103310263.216 8  80352459.297 8  19346693.098    19346693.206    19346695.391
        53.000          50.000
 112583817.372 7  87727663.61746  21423988.163    21423987.109    21423988.684
        47.000          36.0004
 109906647.272 8  85641556.84748  20914539.472    20914539.061    20914542.451
        50.000          52.0004
 116547326.065 7  90816110.56845  22178219.913    22178219.472    22178222.769
        44.000          30.0004
 109126222.731 7  84875979.201 7  20378550.988    20378551.099    20378554.472
        47.000          47.000
 128369604.944 6 100028275.92843  24427924.092    24427923.326    24427928.563
        36.000          18.0004
 115029169.442 7  89633140.96447  21889322.878    21889322.375    21889323.674
        47.000          46.0004
 113617542.976 7  88533168.15747  21620696.577    21620696.060    21620700.314
        46.000          46.0004
 130060405.698 5 101345784.45742  24749673.602    24749672.754    24749675.224
        35.000          16.0004
 123498303.228 6  96054268.057 6  23078610.397    23078610.192    23078612.884
        41.000          38.000
 116295396.089 7  90452010.450 6  21786042.393    21786042.214    21786047.083
        46.000          41.000
 125792727.829 5  98020314.61342  23937558.213    23937555.630    23937559.904
        35.000          17.0004
 119630263.988 6  93218411.39046  22764879.284    22764878.787    22764884.567
        41.000          36.0004
 111142060.564 8  86443852.472 3  20849965.242    20849965.301    20849972.742
        48.000          20.000
 122675643.607 6  95414426.416 5  22949015.910    22949015.136    22949020.327
        38.000          32.000
 127115723.566 6  99051227.31445  24189314.612    24189313.477    24189318.538
        38.000          33.0004
 130841762.202 6 101954634.32242  24898359.463    24898361.087    24898361.711
        37.000          14.0004
 22  1  4  8 48  0.0000000  0 17R09G16G09G04R08G26G07G27G05R17R18G20
                                G08R10R01G30G18
 103323026.590 8  80362386.371 8  19349083.020    19349083.443    19349085.568
        53.000          50.000
 112655437.459 7  87783471.48146  21437617.026    21437615.806    21437617.658
        47.000          36.0004
 109936038.712 8  85664459.26448  20920132.466    20920132.009    20920135.471
        51.000          52.0004
 116637658.316 7  90886499.30545  22195410.070    22195409.132    22195412.458
        45.000          30.0004
 109106067.491 7  84860302.913 7  20374786.704    20374787.506    20374790.213
        47.000          47.000
 128475798.805 5 100111024.39442  24448130.060    24448131.242    24448136.118
        35.000          17.0004
 114957705.664 7  89577454.92747  21875723.422    21875723.209    21875724.386
        47.000          46.0004
 113567315.876 7  88494030.18847  21611138.258    21611138.147    21611142.401
        46.000          46.0004
 130006591.803 6 101303851.55542  24739434.340    24739431.702    24739434.462
        36.000          15.0004
 123573340.155 6  96112630.108 6  23092632.239    23092631.961    23092636.937
        40.000          39.000
 116267412.254 7  90430245.256 7  21780800.762    21780800.069    21780805.224
        46.000          42.000
 125791345.652 6  98019237.60243  23937295.980    23937294.782    23937297.372
        37.000          18.0004
 119531179.233 7  93141202.48746  22746024.271    22746023.914    22746029.331
        42.000          36.0004
 111059065.672 8  86379301.498 3  20834395.608    20834395.242    20834375.220
        48.000          20.000
 122564436.161 6  95327931.782 5  22928212.070    22928211.058    22928215.895
        38.000          32.000
 127015539.787 6  98973162.09645  24170250.381    24170249.031    24170254.354
        38.000          33.0004
 130807764.586 5 101928142.67242  24891890.466    24891891.284    24891893.933
        35.000          17.0004
 22  1  4  8 48 30.0000000  0 17R09G16G09G04R08G26G07G27G05R17R18G20
                                G08R10R01G30G18
 103336305.120 8  80372714.139 8  19351569.738    19351569.933    19351572.111
        52.000          51.000
 112727489.054 7  87839615.59246  21451327.571    21451327.004    21451328.694
        47.000          36.0004
 109966028.149 8  85687827.65448  20925839.108    20925838.722    20925842.184
        50.000          51.0004
 116728356.878 7  90957173.48745  22212668.804    22212668.675    22212671.817
        45.000          30.0004
 109086752.548 7  84845280.182 7  20371180.270    20371180.491    20371183.178
        46.000          47.000
 128582082.602 6 100193842.92442  24468356.985    24468355.708    24468362.514
        36.000          17.0004
 114886480.426 7  89521954.77047  21862169.941    21862169.618    21862170.769
        47.000          46.0004
 113517714.208 7  88455379.57047  21601699.681    21601699.307    21601703.425
        47.000          46.0004
 129953313.777 6 101262336.26242  24729293.666    24729293.555    24729295.577
        36.000          14.0004
 123649032.798 6  96171502.158 6  23106777.187    23106777.265    23106780.281
        41.000          38.000
 116240263.713 7  90409129.739 6  21775715.006    21775714.163    21775719.228
        46.000          41.000
 125790555.019 6  98018621.55443  23937145.050    23937142.957    23937146.375
        36.000          18.0004
 119432440.046 7  93064262.86746  22727234.345    22727234.315    22727239.538
        42.000          36.0004
 110976443.020 8  86315038.864 3  20818895.702    20818895.482    20818870.153
        48.000          20.000
 122453673.718 6  95241783.277 5  22907491.887    22907490.990    22907496.741
        39.000          33.000
 126915456.259 6  98895175.00345  24151205.428    24151203.540    24151208.206
        38.000          33.0004
 130774307.909 5 101902072.58442  24885525.018    24885524.724    24885526.953
        34.000          16.0004
 22  1  4  8 49  0.0000000  0 17R09G16G09G04R08G26G07G27G05R17R18G20
                                G08R10R01G30G18
 103350085.031 8  80383431.871 8  19354150.434    19354150.605    19354152.727
        53.000          50.000
 112799956.186 7  87896083.49446  21465117.866    21465116.952    21465118.605
        47.000          36.0004
 109996602.012 8  85711651.43548  20931657.195    20931656.941    20931660.339
        50.000          52.0004
 116819406.616 7  91028121.29745  22229994.981    22229994.904    22229997.825
        43.000          30.0004
 109068266.014 7  84830901.767 7  20367727.691    20367728.209    20367731.364
        46.000          47.000
 128688441.692 6 100276720.13442  24488597.301    24488595.435    24488601.342
        37.000          17.0004
 114815482.181 7  89466631.49047  21848658.957    21848658.805    21848660.126
        47.000          46.0004
 113468727.011 7  88417207.75847  21592377.648    21592377.324    21592381.425
        47.000          46.0004
 129900559.647 6 101221229.17042  24719254.872    24719255.486    24719256.868
        36.000          16.0004
 123725364.414 6  96230871.215 6  23121040.928    23121040.992    23121045.478
        40.000          39.000
 116213939.241 7  90388655.161 6  21770782.158    21770782.710    21770787.365
        45.000          41.000
 125790342.539 6  98018455.98843  23937103.689    23937102.029    23937105.131
        37.000          18.0004
 119334036.306 7  92987584.63446  22708509.104    22708508.920    22708514.040
        42.000          37.0004
 110894180.180 8  86251056.465 3  20803463.612    20803463.506    20803471.112
        48.000          20.000
 122343347.134 6  95155973.796 5  22886851.478    22886851.643    22886857.890
        38.000          33.000
 126815461.359 6  98817256.96145  24132175.817    24132175.181    24132180.347
        38.000          33.0004
 130741380.688 5 101876415.07642  24879257.142    24879256.872    24879261.412
        33.000          14.0004
 22  1  4  8 49 30.0000000  0 17R09G16G09G04R08G26G07G27G05R17R18G20
                                G08R10R01G30G18
 103364370.412 8  80394542.738 8  19356825.538    19356825.715    19356827.823
        52.000          49.000
 112872842.671 7  87952878.17646  21478987.750    21478986.928    21478988.342
        47.000          36.0004
 110027764.763 8  85735934.09548  20937587.015    20937586.942    20937590.485
        50.000          51.0004
 116910810.671 7  91099345.21145  22247388.580    22247388.385    22247390.974
        44.000          30.0004
 109050613.767 7  84817172.247 7  20364431.331    20364431.830    20364434.747
        46.000          47.000
 128794879.603 6 100359658.79843  24508849.058    24508850.942    24508855.952
        36.000          18.0004
 114744717.318 7  89411490.06547  21835193.005    21835192.795    21835193.971
        47.000          46.0004
 113420361.373 7  88379520.28047  21583173.471    21583173.470    21583177.734
        46.000          46.0004
 129848336.514 5 101180535.82042  24709315.197    24709317.068    24709318.611
        35.000          15.0004
 123802337.102 6  96290738.828 6  23135424.595    23135424.979    23135428.909
        39.000          38.000
 116188445.257 7  90368826.540 6  21766006.550    21766006.578    21766011.701
        45.000          41.000
 125790713.281 6  98018744.87643  23937175.378    23937173.715    23937175.613
        38.000          19.0004
 119235977.277 7  92911175.01446  22689849.233    22689848.832    22689853.873
        42.000          37.0004
 110812283.859 8  86187359.379 3  20788099.859    20788100.015    20788107.359
        49.000          20.000
 122233465.931 6  95070510.691 5  22866295.309    22866296.318    22866301.653
        37.000          33.000
 126715561.497 6  98739412.97845  24113165.465    24113164.924    24113170.332
        38.000          33.0004
 130708989.725 5 101851175.37842  24873094.541    24873094.293    24873095.689
        34.000          14.0004
 22  1  4  8 50  0.0000000  0 17R09G16G09G04R08G26G07G27G05R17R18G20
                                G08R10R01G30G18
 103379155.579 8  80406042.325 8  19359594.254    19359594.540    19359596.687
        52.000          50.000
 112946140.205 7  88009993.15246  21492936.014    21492935.038    21492936.248
        47.000          36.0004
 110059510.727 8  85760671.20048  20943628.530    20943628.054    20943631.647
        51.000          52.0004
 117002561.927 7  91170839.66544  22264848.494    22264848.148    22264851.508
        44.000          29.0004
 109033792.792 7  84804089.280 7  20361290.212    20361290.598    20361293.388
        46.000          47.000
 128901389.598 5 100442653.56742  24529117.736    24529119.020    24529123.580
        34.000          16.0004
 114674182.263 7  89356527.70647  21821770.772    21821770.527    21821771.487
        47.000          47.0004
 113372614.310 7  88342314.80447  21574087.464    21574087.404    21574091.629
        46.000          46.0004
 129796642.606 6 101140254.89542  24699479.293    24699481.231    24699481.859
        36.000          15.0004
 123879942.354 6  96351098.507 6  23149926.552    23149927.258    23149931.651
        39.000          37.000
 116163778.314 7  90349641.162 7  21761386.466    21761385.566    21761390.932
        46.000          42.000
 125791661.720 6  98019483.90743  23937355.382    23937354.226    23937357.358
        38.000          18.0004
 119138260.486 7  92835032.08146  22671253.845    22671254.012    22671258.926
        42.000          37.0004
 110730750.493 8  86123944.600 3  20772804.546    20772804.410    20772812.046
        49.000          20.000
 122124029.070 6  94985393.200 5  22845824.461    22845823.742    22845829.435
        38.000          33.000
 126615753.069 6  98661640.21945  24094172.222    24094172.022    24094176.765
        39.000          33.0004
 130677131.485 5 101826350.75742  24867030.489    24867028.797    24867032.784
        32.000          13.0004
 22  1  4  8 50 30.0000000  0 17R09G16G09G04R08G26G07G27G05R17R18G20
                                G08R10R01G30G18
 103394443.863 8  80417933.221 8  19362457.171    19362457.354    19362459.656
        52.000          49.000
 113019850.888 7  88067430.06346  21506962.444    21506961.786    21506962.968
        47.000          36.0004
 110091843.148 8  85785865.28648  20949780.949    20949780.602    20949784.355
        50.000          52.0004
 117094662.271 7  91242606.14044  22282374.402    22282374.846    22282377.864
        44.000          29.0004
 109017807.837 7  84791656.542 7  20358304.191    20358305.374    20358308.523
        46.000          46.000
 129007973.950 5 100525706.34943  24549400.442    24549399.537    24549407.485
        35.000          18.0004
 114603882.127 7  89301748.40747  21808393.153    21808392.832    21808393.907
        47.000          46.0004
 113325491.665 7  88305595.89147  21565120.551    21565120.424    21565124.511
        46.000          46.0004
 129745483.461 5 101100390.66342  24689743.795    24689744.802    24689748.007
        35.000          15.0004
 123958180.915 6  96411950.659 6  23164547.368    23164548.184    23164554.539
        39.000          39.000
 116139944.096 7  90331103.461 6  21756920.843    21756920.930    21756925.866
        46.000          41.000
 125793191.895 5  98020676.24442  23937646.361    23937644.938    23937646.556
        35.000          17.0004
 119040892.848 7  92759161.21846  22652726.040    22652725.355    22652730.475
        42.000          37.0004
 110649584.942 8  86060815.941 3  20757577.950    20757577.852    20757585.450
        49.000          20.000
 122015044.452 6  94900627.446 5  22825436.565    22825436.093    22825441.393
        38.000          32.000
 126516041.295 6  98583942.80145  24075198.693    24075197.814    24075202.497
        39.000          34.0004
 130645811.472 5 101801945.58042  24861073.262    24861071.043    24861074.503
        35.000          16.0004
 22  1  4  8 51  0.0000000  0 17R09G16G09G04R08G26G07G27G05R17R18G20
                                G08R10R01G30G18
 103410233.677 8  80430214.182 7  19365413.971    19365414.233    19365416.562
        52.000          47.000
 113093971.064 7  88125186.06445  21521067.048    21521066.410    21521067.614
        46.000          35.0004
 110124760.405 8  85811515.08648  20956045.182    20956044.689    20956048.162
        50.000          52.0004
 117187108.732 7  91314642.31644  22299967.016    22299966.019    22299969.599
        44.000          29.0004
 109002658.766 7  84779873.939 7  20355475.692    20355476.419    20355479.525
        46.000          45.000
 129114630.154 5 100608815.04142  24569696.020    24569698.098    24569701.085
        35.000          16.0004
 114533817.489 7  89247152.60247  21795060.165    21795059.972    21795060.995
        47.000          47.0004
 113278994.398 7  88269364.28447  21556272.526    21556272.345    21556276.437
        46.000          46.0004
 129694859.725 5 101060943.63742  24680111.458    24680111.055    24680112.982
        35.000          15.0004
 124037048.153 6  96473291.827 6  23179285.714    23179285.139    23179290.598
        38.000          38.000
 116116943.060 7  90313213.784 7  21752612.842    21752612.156    21752617.123
        46.000          42.000
 125795302.447 6  98022320.82642  23938048.330    23938046.027    23938048.858
        37.000          15.0004
 118943876.896 7  92683564.41046  22634263.971    22634263.871    22634269.008
        43.000          38.0004
 110568787.940 8  85997973.924 3  20742420.294    20742420.168    20742427.794
        48.000          20.000
 121906515.826 6  94816216.362 5  22805131.909    22805133.140    22805139.755
        37.000          33.000
 126416426.620 6  98506321.04145  24056242.023    24056241.460    24056246.034
        39.000          33.0004
 130615030.377 5 101777960.30342  24855214.041    24855213.652    24855217.239
        33.000          15.0004
 22  1  4  8 51 30.0000000  0 17R09G16G09G04R08G26G07G27G05R17R18G20
                                G08R10R01G30G18
 103426505.781 8  80442870.266 8  19368461.286    19368461.660    19368463.775
        52.000          49.000
 113168481.186 7  88183245.91245  21535245.457    21535244.989    21535246.353
        47.000          35.0004
 110158243.942 8  85837606.14348  20962416.406    20962416.264    20962419.904
        50.000          51.0004
 117279881.319 7  91386932.62444  22317620.491    22317620.307    22317623.489
        44.000          29.0004
 108988329.145 7  84768728.683 7  20352799.706    20352800.462    20352803.324
        46.000          46.000
 129221338.742 5 100691964.57142  24590002.559    24590002.863    24590007.926
        35.000          17.0004
 114463971.850 7  89192727.45347  21781769.197    21781768.849    21781769.872
        47.000          47.0004
 113233106.602 7  88233607.59947  21547540.709    21547540.233    21547544.312
        47.000          46.0004
 129644754.320 5 101021900.48742  24670575.494    24670576.206    24670578.895
        33.000          14.0004
 124116522.633 6  96535105.314 6  23194139.429    23194138.840    23194142.848
        39.000          38.000
 116094758.140 7  90295958.864 7  21748456.367    21748456.181    21748460.826
        46.000          42.000
 125797975.203 6  98024403.49142  23938557.220    23938554.695    23938556.434
        37.000          16.0004
 118847197.456 7  92608229.83246  22615866.452    22615866.295    22615871.375
        43.000          38.0004
 110488342.191 8  85935405.082 3  20727329.131    20727328.890    20727336.631
        48.000          20.000
 121798428.748 6  94732148.701 5  22784914.101    22784913.495    22784919.320
        38.000          33.000
 126316892.566 6  98428762.07745  24037300.837    24037300.799    24037305.640
        39.000          33.0004
 130584771.771 5 101754382.14642  24849456.951    24849456.135    24849458.647
        35.000          17.0004
 22  1  4  8 52  0.0000000  0 17R09G16G09G04R08G26G07G27G05R17R18G20
                                G08R10R01G30G18
 103443283.336 8  80455919.485 8  19371603.326    19371603.479    19371605.680
        52.000          51.000
 113243401.420 7  88241625.33045  21549502.273    21549501.805    21549503.219
        47.000          35.0004
 110192316.457 8  85864156.14448  20968900.428    20968900.066    20968903.589
        51.000          52.0004
 117373001.380 7  91459493.69044  22335340.570    22335340.561    22335343.722
        43.000          29.0004
 108974843.283 7  84758239.681 7  20350281.189    20350282.030    20350285.042
        46.000          47.000
 129328121.473 6 100775171.88442  24610324.065    24610321.655    24610329.289
        36.000          16.0004
 114394369.873 7  89138492.17247  21768524.160    21768523.900    21768525.007
        47.000          47.0004
 113187853.547 7  88198345.51447  21538929.125    21538928.777    21538932.860
        47.000          46.0004
 129595193.989 5 100983282.12742  24661144.260    24661144.721    24661147.842
        34.000          16.0004
 124196624.843 6  96597407.002 6  23209108.389    23209108.329    23209112.250
        40.000          39.000
 116073414.771 7  90279358.501 6  21744458.016    21744457.663    21744461.994
        46.000          41.000
 125801233.447 6  98026942.39242  23939176.575    23939175.906    23939179.282
        36.000          16.0004
 118750881.439 7  92533178.44646  22597538.861    22597538.023    22597543.147
        43.000          38.0004
 110408273.247 8  85873129.663 3  20712308.128    20712308.111    20712291.445
        49.000          20.000
 121690811.850 6  94648446.732 5  22764781.898    22764781.395    22764786.961
        38.000          33.000
 126217463.880 6  98351285.24645  24018380.178    24018379.573    24018385.111
        38.000          33.0004
 130555060.619 5 101731230.62342  24843802.121    24843801.761    24843804.936
        35.000          17.0004
 22  1  4  8 52 30.0000000  0 17R09G16G09G04R08G26G07G27G05R17R18G20
                                G08R10R01G30G18
 103460548.327 8  80469347.837 8  19374836.462    19374836.707    19374838.992
        52.000          50.000
 113318712.856 7  88300309.57745  21563833.430    21563832.921    21563834.486
        47.000          35.0004
 110226959.824 8  85891150.97048  20975492.856    20975492.512    20975496.115
        50.000          51.0004
 117466449.509 7  91532310.40144  22353123.524    22353123.167    22353126.730
        44.000          28.0004
 108962184.547 7  84748394.002 7  20347917.408    20347918.128    20347920.924
        46.000          47.000
 129434959.334 5 100858422.19542  24630653.263    24630653.138    24630658.219
        35.000          16.0004
 114324995.857 8  89084434.52647  21755323.169    21755322.622    21755323.508
        48.000          47.0004
 113143219.746 7  88163565.96847  21530435.879    21530435.213    21530439.335
        47.000          46.0004
 129546162.519 5 100945075.80042  24651815.288    24651813.685    24651816.108
        35.000          16.0004
 124277333.592 6  96660180.488 6  23224188.866    23224189.047    23224193.741
        39.000          37.000
 116052896.670 7  90263400.020 7  21740613.597    21740613.844    21740617.909
        46.000          42.000
 125805059.139 6  98029923.44742  23939905.340    23939904.114    23939906.612
        37.000          15.0004
 118654914.685 7  92458399.21146  22579276.341    22579276.026    22579281.225
        42.000          38.0004
 110328564.474 8  85811133.883 3  20697355.375    20697355.257    20697358.490
        48.000          20.000
 121583651.184 6  94565099.604 5  22744735.274    22744734.490    22744740.610
        38.000          33.000
 126118124.659 6  98273878.13245  23999477.394    23999476.419    23999480.812
        38.000          33.0004
 130525881.029 5 101708493.28342  24838249.240    24838249.331    24838251.515
        34.000          16.0004
 22  1  4  8 53  0.0000000  0 17R09G16G09G04R08G26G07G27G05R17R18G20
                                G08R10R01G30G18
 103478327.420 8  80483176.040 8  19378166.002    19378166.166    19378168.338
        52.000          51.000
 113394439.995 7  88359317.75245  21578244.325    21578243.363    21578245.177
        47.000          35.0004
 110262200.679 8  85918611.37048  20982198.624    20982198.540    20982202.213
        50.000          52.0004
 117560250.977 7  91605402.42344  22370973.555    22370973.104    22370976.372
        45.000          29.0004
 108950381.635 7  84739213.960 7  20345714.087    20345713.902    20345716.656
        46.000          47.000
 129541878.330 5 100941735.67042  24650999.440    24650998.971    24651005.026
        35.000          16.0004
 114255878.690 8  89030577.03947  21742170.376    21742169.908    21742170.792
        48.000          47.0004
 113099234.396 7  88129291.70847  21522065.172    21522064.874    21522069.146
        46.000          47.0004
 129497688.877 5 100907304.15842  24642590.426    24642590.779    24642593.008
        35.000          17.0004
 124358673.235 6  96723444.671 6  23239390.124    23239391.609    23239394.693
        41.000          38.000
 116033233.022 7  90248106.113 7  21736930.892    21736930.337    21736934.066
        47.000          42.000
 125809479.617 6  98033367.95242  23940744.866    23940744.914    23940746.089
        37.000          16.0004
 118559327.256 7  92383915.57346  22561086.713    22561086.077    22561091.482
        43.000          39.0004
 110249244.834 8  85749440.265 3  20682475.354    20682474.988    20682482.854
        49.000          20.000
 121476978.821 6  94482132.277 5  22724779.991    22724778.820    22724785.844
        38.000          34.000
 126018903.620 6  98196563.10245  23980595.570    23980594.866    23980599.271
        38.000          33.0004
 130497261.766 5 101686192.58342  24832804.726    24832802.453    24832804.072
        34.000          14.0004
 22  1  4  8 53 30.0000000  0 17R09G16G09G04R08G26G07G27G05R17R18G20
                                G08R10R01G30G18
 103496594.337 8  80497383.662 8  19381586.753    19381586.878    19381589.243
        52.000          51.000
 113470555.541 7  88418628.57645  21592728.836    21592727.924    21592729.132
        47.000          34.0004
 110298013.113 8  85946517.16148  20989014.067    20989013.537    20989017.220
        50.000          51.0004
 117654378.591 7  91678748.59844  22388884.992    22388885.085    22388887.950
        44.000          29.0004
 108939410.051 7  84730680.505 7  20343664.724    20343665.282    20343668.141
        46.000          47.000
 129648851.567 6 101025091.41942  24671357.269    24671355.842    24671362.479
        36.000          14.0004
 114186994.616 7  88976901.17147  21729062.173    21729061.639    21729062.664
        47.000          47.0004
 113055874.199 7  88095504.57247  21513813.800    21513813.693    21513817.930
        45.000          46.0004
 129449750.621 5 100869949.69742  24633468.672    24633469.623    24633471.178
        35.000          16.0004
 124440615.092 6  96787177.227 6  23254703.854    23254702.814    23254707.051
        39.000          38.000
 116014399.358 7  90233457.738 6  21733402.673    21733402.096    21733406.200
        47.000          41.000
 125814469.073 6  98037255.85342  23941695.177    23941694.769    23941695.589
        36.000          15.0004
 118464097.268 7  92309710.46646  22542965.256    22542964.598    22542969.793
        43.000          39.0004
 110170290.446 8  85688031.349 3  20667663.946    20667663.373    20667671.446
        49.000          20.000
 121370773.507 6  94399528.207 5  22704912.149    22704911.475    22704917.202
        38.000          33.000
 125919777.042 6  98119321.67545  23961731.759    23961731.117    23961736.683
        38.000          33.0004
 130469179.253 5 101664310.13142  24827457.720    24827459.196    24827462.759
        34.000          15.0004
 22  1  4  8 54  0.0000000  0 17R09G16G09G04R08G26G07G27G05R17R18G20
                                G08R10R01G30G18
 103515346.526 8  80511968.712 8  19385098.752    19385098.662    19385100.713
        53.000          50.000
 113547055.243 7  88478238.73445  21607286.150    21607285.379    21607286.698
        47.000          35.0004
 110334394.423 8  85974866.22748  20995936.966    20995936.685    20995940.318
        50.000          51.0004
 117748828.347 7  91752345.78444  22406859.153    22406858.305    22406861.253
        44.000          29.0004
 108929268.918 7  84722792.963 7  20341770.232    20341771.219    20341774.737
        46.000          47.000
 129755875.600 6 101108486.75842  24691723.681    24691722.518    24691728.040
        36.000          16.0004
 114118342.964 8  88923406.40547  21715998.106    21715997.765    21715998.732
        48.000          47.0004
 113013139.027 7  88062204.46347  21505681.722    21505681.478    21505685.643
        47.000          46.0004
 129402347.133 5 100833011.91442  24624447.264    24624446.280    24624449.955
        34.000          15.0004
 124523153.117 6  96851373.492 6  23270125.820    23270126.030    23270131.487
        38.000          38.000
 115996395.081 7  90219454.434 7  21730029.769    21730028.954    21730033.599
        46.000          42.000
 125820025.370 6  98041585.45742  23942753.322    23942751.969    23942753.365
        37.000          17.0004
 118369226.004 7  92235784.89646  22524911.619    22524911.102    22524916.393
        43.000          39.0004
 110091700.459 8  85626905.610 3  20652920.463    20652920.063    20652927.963
        49.000          20.000
 121265037.351 6  94317289.035 5  22685132.655    22685131.499    22685136.454
        39.000          33.000
 125820744.407 6  98042153.47645  23942886.853    23942886.153    23942891.283
        38.000          33.0004
 130441633.026 6 101642845.57342  24822219.173    24822216.812    24822219.523
        36.000          16.0004
 22  1  4  8 54 30.0000000  0 17R09G16G09G04R08G26G07G27G05R17R18G20
                                G08R10R01G30G18
 103534602.698 8  80526945.748 8  19388704.775    19388704.764    19388706.937
        52.000          49.000
 113623956.309 7  88538161.65145  21621919.492    21621919.102    21621920.402
        47.000          35.0004
 110371363.051 8  86003672.94648  21002972.078    21002971.570    21002975.181
        50.000          51.0004
 117843617.467 7  91826207.40744  22424895.826    22424896.409    22424899.140
        44.000          29.0004
 108919978.223 7  84715566.879 7  20340035.632    20340036.538    20340039.365
        46.000          46.000
 129862968.247 5 101191935.55842  24712101.757    24712101.334    24712107.495
        35.000          15.0004
 114049944.590 7  88870109.00247  21702982.265    21702981.904    21702982.916
        47.000          47.0004
 112971049.965 7  88029407.82047  21497672.406    21497672.175    21497676.344
        47.000          47.0004
 129355499.784 5 100796507.52442  24615531.433    24615532.408    24615536.404
        33.000          15.0004
 124606303.918 6  96916046.339 6  23285666.731    23285665.944    23285670.061
        39.000          38.000
 115979240.748 7  90206112.201 6  21726815.852    21726815.517    21726820.115
        46.000          41.000
 125826167.489 6  98046371.51742  23943921.178    23943919.980    23943923.255
        37.000          16.0004
 118274735.616 7  92162156.11846  22506930.535    22506930.027    22506935.503
        42.000          39.0004
 110013495.856 8  85566080.157 3  20638249.431    20638249.073    20638243.210
        49.000          20.000
 121159794.312 6  94235433.401 5  22665444.917    22665443.230    22665448.967
        39.000          34.000
 125721826.520 6  97965074.67345  23924063.492    23924062.425    23924067.870
        38.000          33.0004
 130414643.756 5 101621815.02542  24817082.495    24817081.141    24817083.779
        35.000          16.0004
 22  1  4  8 55  0.0000000  0 17R09G16G09G04R08G26G07G27G05R17R18G20
                                G08R10R01G30G18
 103554359.450 8  80542312.119 8  19392404.220    19392404.339    19392406.623
        53.000          50.000
 113701253.555 7  88598393.27345  21636629.145    21636628.350    21636629.779
        47.000          35.0004
 110408915.620 8  86032934.67548  21010117.936    21010117.518    21010121.175
        50.000          51.0004
 117938741.291 7  91900329.84644  22442997.242    22442997.242    22443000.314
        44.000          28.0004
 108911536.702 7  84709001.260 7  20338458.976    20338460.012    20338462.638
        47.000          46.000
 129970125.392 5 101275434.60242  24732491.995    24732492.023    24732499.287
        34.000          13.0004
 113981798.395 8  88817008.09147  21690014.252    21690013.916    21690015.031
        48.000          47.0004
 112929606.176 7  87997113.98747  21489786.112    21489785.675    21489789.803
        47.000          47.0004
 129309206.376 5 100760434.76342  24606722.185    24606722.824    24606725.953
        34.000          14.0004
 124690061.226 6  96981190.941 6  23301318.097    23301318.324    23301322.450
        40.000          38.000
 115962934.973 7  90193429.962 7  21723760.983    21723760.474    21723765.525
        46.000          42.000
 125832892.358 6  98051611.68842  23945201.187    23945200.785    23945203.705
        37.000          17.0004
 118180626.938 7  92088824.76746  22489021.505    22489021.634    22489027.261
        43.000          39.0004
 109935675.534 8  85505552.742 3  20623650.631    20623650.181    20623641.605
        49.000          20.000
 121055045.920 6  94153962.492 5  22645847.946    22645847.475    22645852.951
        38.000          34.000
 125623022.082 6  97888084.29145  23905261.883    23905261.072    23905265.887
        39.000          34.0004
 130388210.232 6 101601217.49342  24812051.646    24812051.813    24812054.911
        37.000          17.0004
 22  1  4  8 55 30.0000000  0 17R09G16G09G04R08G26G07G27G05R17R18G20
                                G08R10R01G30G18
 103574594.050 8  80558050.151 8  19396193.459    19396193.613    19396196.030
        52.000          49.000
 113778922.890 7  88658914.83745  21651409.013    21651408.356    21651409.652
        46.000          35.0004
 110447029.762 8  86062633.99848  21017370.664    21017370.375    21017373.976
        50.000          51.0004
 118034176.225 7  91974694.70244  22461157.968    22461158.160    22461161.280
        43.000          28.0004
 108903922.856 7  84703079.389 7  20337037.552    20337037.935    20337041.000
        46.000          46.000
 130077323.888 5 101358965.89142  24752893.689    24752893.531    24752897.127
        34.000          14.0004
 113913884.368 7  88764088.11347  21677090.645    21677090.373    21677091.398
        47.000          47.0004
 112888787.904 7  87965307.56047  21482018.296    21482018.097    21482022.225
        47.000          46.0004
 129263449.188 5 100724779.83342  24598017.070    24598016.359    24598018.313
        35.000          16.0004
 124774399.623 6  97046787.477 6  23317078.573    23317078.935    23317082.819
        39.000          38.000
 115947457.143 7  90181391.676 6  21720861.187    21720861.272    21720865.784
        46.000          41.000
 125840178.075 6  98057288.89043  23946588.164    23946587.350    23946588.595
        37.000          18.0004
 118086881.517 7  92015776.47346  22471183.072    22471182.515    22471187.995
        43.000          40.0004
 109858218.615 8  85445308.515 3  20609118.917    20609119.405    20609126.417
        49.000          20.000
 120950774.399 6  94072862.479 5  22626340.754    22626341.868    22626347.468
        38.000          34.000
 125524311.126 6  97811166.74845  23886477.029    23886476.415    23886482.928
        38.000          34.0004
 130362312.295 5 101581037.30742  24807122.976    24807122.365    24807126.146
        35.000          15.0004
 22  1  4  8 56  0.0000000  0 17R09G16G09G04R08G26G07G27G05R17R18G20
                                G08R10R01G30G18
 103595326.243 8  80574175.188 8  19400076.048    19400076.090    19400078.391
        53.000          48.000
 113856982.539 7  88719740.53345  21666263.128    21666262.402    21666263.889
        46.000          34.0004
 110485724.563 8  86092785.78248  21024734.367    21024733.890    21024737.391
        51.000          51.0004
 118129940.068 7  92049315.85644  22479380.903    22479381.469    22479384.882
        43.000          28.0004
 108897158.059 7  84697817.883 7  20335774.066    20335775.146    20335777.363
        46.000          45.000
 130184582.316 5 101442543.87442  24773302.655    24773301.017    24773306.623
        34.000          15.0004
 113846223.932 7  88711365.70747  21664214.774    21664214.933    21664215.862
        47.000          47.0004
 112848616.797 7  87934005.41047  21474373.972    21474373.768    21474377.945
        46.000          47.0004
 129218248.653 5 100689558.69542  24589415.134    24589413.600    24589416.585
        34.000          16.0004
 124859335.820 6  97112848.971 6  23332950.421    23332950.535    23332955.424
        39.000          38.000
 115932828.541 7  90170013.894 6  21718121.593    21718121.217    21718125.585
        47.000          41.000
 125848044.073 6  98063418.26642  23948084.684    23948083.874    23948086.279
        37.000          16.0004
 117993522.455 7  91943029.22546  22453417.246    22453416.632    22453422.234
        43.000          40.0004
 109781146.730 8  85385364.304 3  20594660.968    20594660.802    20594645.361
        49.000          20.000
 120847004.089 6  93992152.305 5  22606928.879    22606928.880    22606934.716
        38.000          34.000
 125425714.996 6  97734338.69745  23867714.504    23867714.172    23867719.607
        38.000          34.0004
 130336971.261 6 101561291.11842  24802300.545    24802300.535    24802302.386
        36.000          15.0004
 22  1  4  8 56 30.0000000  0 17R09G16G09G04R08G26G07G27G05R17R18G20
                                G08R10R01G30G18
 103616549.391 8  80590682.079 8  19404050.278    19404050.574    19404053.077
        52.000          50.000
 113935424.078 7  88780863.80445  21681190.142    21681189.404    21681190.772
        46.000          34.0004
 110524993.556 8  86123384.99048  21032206.843    21032206.464    21032209.869
        51.000          51.0004
 118226025.144 7  92124187.32044  22497666.392    22497665.466    22497668.712
        43.000          28.0004
 108891236.911 7  84693212.556 7  20334668.364    20334669.163    20334672.097
        46.000          47.000
 130291893.551 6 101526162.99142  24793724.903    24793724.406    24793727.212
        36.000          14.0004
 113778812.628 7  88658837.45147  21651387.091    21651386.998    21651388.030
        47.000          47.0004
 112809088.918 7  87903204.47847  21466852.424    21466851.938    21466856.024
        47.000          47.0004
 129173601.119 5 100654768.44042  24580918.026    24580917.263    24580920.594
        35.000          16.0004
 124944860.678 6  97179368.305 6  23348934.795    23348933.988    23348937.113
        39.000          37.000
 115919044.552 7  90159293.045 7  21715538.795    21715538.480    21715543.221
        46.000          42.000
 125856483.837 6  98069994.69942  23949690.555    23949688.820    23949690.730
        36.000          15.0004
 117900546.902 7  91870580.81346  22435724.033    22435724.209    22435729.487
        43.000          40.0004
 109704455.380 8  85325714.952 3  20580273.589    20580273.441    20580281.089
        49.000          20.000
 120743733.779 6  93911831.009 5  22587610.957    22587610.466    22587617.267
        39.000          35.000
 125327229.519 6  97657596.85845  23848974.151    23848972.938    23848977.967
        38.000          34.0004
 130312182.949 6 101541975.55042  24797584.328    24797584.124    24797584.128
        36.000          16.0004
 22  1  4  8 57  0.0000000  0 17R09G16G09G04R08G26G07G27G05R17R18G20
                                G08R10R01G30G18
 103638263.032 8  80607570.463 8  19408116.538    19408116.880    19408119.171
        53.000          50.000
 114014245.687 7  88842283.23645  21696189.358    21696188.582    21696190.192
        46.000          34.0004
 110564836.238 8  86154431.22648  21039788.783    21039788.369    21039791.746
        50.000          51.0004
 118322429.801 7  92199307.81544  22516011.173    22516010.762    22516014.088
        43.000          28.0004
 108886160.455 7  84689264.209 7  20333720.245    20333721.270    20333724.290
        46.000          47.000
 130399256.404 5 101609822.34342  24814154.562    24814152.881    24814158.913
        33.000          15.0004
 113711652.493 8  88606504.91248  21638607.100    21638606.812    21638607.843
        48.000          48.0004
 112770206.358 7  87872906.39247  21459453.299    21459452.967    21459456.917
        47.000          47.0004
 129129508.971 6 100620410.92742  24572529.825    24572527.438    24572529.648
        36.000          16.0004
 125030971.072 6  97246343.063 6  23365027.170    23365026.007    23365029.473
        40.000          37.000
 115906106.384 7  90149230.036 7  21713115.111    21713114.809    21713119.497
        46.000          42.000
 125865497.684 6  98077018.49742  23951405.859    23951404.565    23951405.526
        37.000          16.0004
 117807958.579 7  91798434.12746  22418105.237    22418105.058    22418110.464
        43.000          40.0004
 109628146.527 8  85266363.538 3  20565957.538    20565958.236    20565941.306
        49.000          20.000
 120640967.968 6  93831902.124 5  22568386.256    22568385.688    22568391.386
        38.000          34.000
 125228856.664 6  97580942.76145  23830253.756    23830253.370    23830258.923
        38.000          34.0004
 130287948.974 5 101523091.93242  24792970.625    24792971.415    24792975.087
        33.000          15.0004
 22  1  4  8 57 30.0000000  0 17R09G16G09G04R08G26G07G27G05R17R18G20
                                G08R10R01G30G18
 103660459.349 8  80624834.295 8  19412273.200    19412273.528    19412275.801
        52.000          50.000
 114093437.748 7  88903991.33345  21711259.154    21711258.377    21711259.965
        46.000          34.0004
 110605244.391 8  86185918.09948  21047478.014    21047477.657    21047481.134
        50.000          51.0004
 118419144.607 7  92274669.97944  22534415.564    22534414.967    22534418.306
        43.000          28.0004
 108881922.081 7  84685967.711 7  20332929.040    20332929.632    20332933.019
        46.000          47.000
 130506662.215 5 101693515.18942  24834593.220    24834591.785    24834598.568
        34.000          14.0004
 113644737.799 8  88554363.62747  21625873.825    21625873.348    21625874.427
        48.000          47.0004
 112731963.472 7  87843106.75547  21452176.103    21452175.653    21452179.533
        47.000          47.0004
 129085966.218 6 100586481.54143  24564243.126    24564243.246    24564244.834
        36.000          18.0004
 125117655.820 6  97313764.567 6  23381223.946    23381223.326    23381228.086
        39.000          38.000
 115894007.354 7  90139819.691 7  21710848.146    21710848.202    21710852.814
        46.000          42.000
 125875077.758 6  98084483.47042  23953228.255    23953227.821    23953230.581
        36.000          15.0004
 117715753.103 7  91726585.75346  22400559.345    22400558.968    22400564.392
        43.000          39.0004
 109552213.944 8  85207305.265 3  20551713.669    20551713.369    20551701.821
        49.000          20.000
 120538703.393 6  93752363.065 5  22549254.599    22549254.533    22549260.967
        38.000          34.000
 125130590.490 6  97504371.80845  23811554.726    23811553.878    23811558.978
        39.000          34.0004
 130264263.417 6 101504635.68842  24788466.386    24788465.524    24788466.665
        36.000          15.0004
 22  1  4  8 58  0.0000000  0 17R09G16G09G04R08G26G07G27G05R17R18G20
                                G08R10R01G30G18
 103683143.547 8  80642477.561 8  19416521.329    19416521.434    19416523.801
        53.000          51.000
 114173004.669 7  88965991.51845  21726400.285    21726399.453    21726401.011
        46.000          34.0004
 110646223.512 8  86217849.87948  21055276.098    21055275.771    21055279.295
        50.000          51.0004
 118516173.899 7  92350277.20244  22552879.601    22552879.015    22552882.524
        43.000          27.0004
 108878528.825 7  84683328.518 7  20332295.865    20332295.851    20332299.023
        46.000          47.000
 130614115.830 5 101777245.25942  24855041.056    24855038.919    24855044.730
        34.000          14.0004
 113578076.319 8  88502419.64547  21613188.366    21613188.004    21613189.101
        48.000          47.0004
 112694368.286 8  87813811.81547  21445022.198    21445021.475    21445025.307
        48.000          47.0004
 129042980.832 6 100552986.47543  24556061.660    24556062.062    24556064.826
        36.000          18.0004
 125204917.892 6  97381635.050 6  23397531.063    23397532.178    23397535.684
        40.000          38.000
 115882755.278 7  90131068.084 7  21708740.772    21708740.305    21708744.682
        46.000          42.000
 125885230.085 6  98092394.41342  23955160.094    23955158.232    23955163.505
        37.000          16.0004
 117623940.255 7  91655043.30046  22383088.147    22383087.815    22383092.902
        43.000          40.0004
 109476665.375 8  85148544.663 3  20537541.359    20537540.713    20537548.859
        49.000          20.000
 120436950.587 6  93673222.058 5  22530220.262    22530219.873    22530225.083
        38.000          34.000
 125032438.948 6  97427890.15545  23792875.805    23792876.077    23792881.388
        38.000          34.0004
 130241133.884 5 101486612.71742  24784064.250    24784063.505    24784064.507
        34.000          14.0004
 22  1  4  8 58 30.0000000  0 17R09G16G09G04R08G26G07G27G05R17R18G20
                                G08R10R01G30G18
 103706325.961 8  80660508.329 8  19420862.644    19420862.771    19420865.173
        52.000          51.000
 114252954.270 7  89028289.90445  21741613.860    21741613.227    21741615.000
        45.000          34.0004
 110687783.203 8  86250234.05148  21063184.971    21063184.334    21063187.914
        50.000          51.0004
 118613526.088 7  92426136.02644  22571405.464    22571405.001    22571408.459
        42.000          27.0004
 108875991.956 7  84681355.404 7  20331821.142    20331822.208    20331824.913
        46.000          47.000
 130721626.490 5 101861019.81242  24875497.922    24875498.890    24875504.032
        33.000          14.0004
 113511680.174 7  88450682.42047  21600553.768    21600553.303    21600554.396
        47.000          47.0004
 112657432.948 7  87785031.04147  21437993.087    21437992.865    21437996.702
        47.000          47.0004
 129000565.330 5 100519935.44242  24547991.146    24547991.891    24547992.611
        35.000          17.0004
 125292764.520 6  97449960.217 6  23413947.164    23413947.408    23413951.881
        40.000          38.000
 115872361.560 7  90122984.107 7  21706793.893    21706793.181    21706797.810
        46.000          42.000
 125895964.432 6  98100758.83642  23957202.946    23957201.087    23957203.962
        36.000          16.0004
 117532533.460 7  91583817.24246  22365694.332    22365693.672    22365698.583
        44.000          40.0004
 109401512.938 8  85090092.651 3  20523442.403    20523442.634    20523444.300
        49.000          20.000
 120335724.614 6  93594490.803 5  22511283.293    22511283.730    22511289.142
        39.000          34.000
 124934414.083 6  97351507.23145  23774223.222    23774223.013    23774227.597
        39.000          34.0004
 130218572.322 5 101469032.26142  24779769.331    24779769.393    24779772.372
        34.000          14.0004
 22  1  4  8 59  0.0000000  0 17R09G16G09G04R08G26G07G27G05R17R18G20
                                G08R10R01G30G18
 103729992.174 8  80678915.381 8  19425294.829    19425294.766    19425296.918
        52.000          50.000
 114333271.427 7  89090874.69645  21756897.777    21756897.262    21756898.539
        46.000          34.0004
 110729909.199 8  86283059.49648  21071201.192    21071200.655    21071204.355
        50.000          51.0004
 118711185.815 7  92502234.49544  22589989.391    22589988.747    22589992.098
        43.000          27.0004
 108874298.528 7  84680038.305 7  20331505.183    20331506.057    20331509.046
        46.000          47.000
 130829179.356 5 101944827.24742  24895964.703    24895964.630    24895971.010
        34.000          14.0004
 113445537.555 8  88399142.74448  21587967.413    21587966.808    21587967.916
        48.000          48.0004
 112621145.776 7  87756755.33148  21431088.301    21431087.508    21431091.483
        47.000          48.0004
 128958707.973 5 100487319.33842  24540025.176    24540025.813    24540027.524
        35.000          17.0004
 125381178.542 6  97518726.662 6  23430470.528    23430470.219    23430475.302
        39.000          39.000
 115862813.707 7  90115558.009 7  21705004.618    21705004.567    21705008.787
        46.000          42.000
 125907266.874 6  98109565.91042  23959354.509    23959352.362    23959354.356
        36.000          15.0004
 117441522.488 7  91512899.60246  22348375.202    22348374.762    22348379.626
        44.000          40.0004
 109326744.363 8  85031939.722 3  20509415.754    20509415.630    20509417.751
        49.000          20.000
 120235016.237 6  93516162.110 5  22492444.537    22492444.046    22492449.117
        39.000          34.000
 124836504.052 6  97275213.75145  23755590.784    23755590.165    23755595.554
        39.000          34.0004
 130196566.668 5 101451885.00542  24775583.813    24775581.414    24775586.085
        35.000          14.0004
 22  1  4  8 59 30.0000000  0 17R09G16G09G04R08G26G07G27G05R17R18G20
                                G08R10R01G30G18
 103754137.315 8  80697694.950 8  19429816.306    19429816.448    19429818.570
        52.000          49.000
 114413950.138 7  89153741.22445  21772250.676    21772250.103    21772251.282
        46.000          34.0004
 110772596.863 8  86316322.60148  21079324.148    21079323.860    21079327.575
        49.000          51.0004
 118809147.284 7  92578568.08744  22608630.687    22608630.385    22608633.606
        43.000          27.0004
 108873444.973 7  84679374.445 7  20331346.149    20331346.557    20331349.747
        46.000          47.000
 130936769.301 5 102028663.59942  24916439.317    24916440.003    24916443.876
        34.000          13.0004
 113379646.315 7  88347798.94748  21575428.543    21575428.062    21575429.031
        47.000          48.0004
 112585504.607 7  87728983.00747  21424305.304    21424305.192    21424309.337
        47.000          47.0004
 128917407.036 6 100455136.81542  24532166.960    24532166.589    24532168.556
        36.000          16.0004
 125470152.532 6  97587928.673 6  23447096.028    23447096.765    23447100.131
        39.000          38.000
 115854108.478 7  90108787.293 7  21703373.946    21703373.824    21703378.229
        46.000          42.000
 125919133.309 6  98118812.51542  23961611.718    23961610.471    23961613.548
        36.000          14.0004
 117350906.482 7  91442289.71746  22331131.920    22331131.083    22331135.952
        44.000          40.0004
 109252357.272 8  84974082.630 3  20495461.080    20495461.050    20495474.580
        50.000          20.000
 120134825.444 6  93438235.978 5  22473700.555    22473700.909    22473706.696
        39.000          34.000
 124738706.677 6  97199008.08145  23736981.724    23736980.641    23736985.666
        39.000          35.0004
 130175114.443 5 101435169.02342  24771502.660    24771500.826    24771501.175
        35.000          14.0004
 22  1  4  9  0  0.0000000  0 17R09G16G09G04R08G26G07G27G05R17R18G20
                                G08R10R01G30G18
 103778762.047 8  80716847.533 8  19434427.792    19434427.709    19434429.915
        52.000          50.000
 114494988.615 7  89216888.08745  21787671.924    21787670.899    21787672.426
        46.000          34.0004
 110815846.129 8  86350023.31348  21087554.015    21087553.919    21087557.613
        50.000          50.0004
 118907409.348 7  92655135.91244  22627329.194    22627328.922    22627331.895
        44.000          27.0004
 108873432.697 7  84679364.910 7  20331343.598    20331344.388    20331347.338
        46.000          47.000
 131044395.916 5 102112528.48642  24936920.176    24936920.902    24936924.017
        34.000          15.0004
 113314009.288 7  88296653.24547  21562938.184    21562937.676    21562938.771
        47.000          47.0004
 112550511.941 7  87701716.01347  21417646.663    21417646.364    21417650.434
        47.000          47.0004
 128876664.058 5 100423389.08042  24524412.553    24524413.081    24524415.034
        35.000          17.0004
 125559683.934 6  97657564.193 6  23463828.332    23463827.388    23463832.418
        39.000          38.000
 115846247.488 7  90102673.208 7  21701901.991    21701901.377    21701905.478
        47.000          42.000
 125931563.940 5  98128498.70642  23963975.977    23963975.800    23963978.435
        34.000          14.0004
 117260690.012 7  91371991.14646  22313963.876    22313963.514    22313968.328
        44.000          40.0004
 109178353.589 8  84916524.650 3  20481578.291    20481578.199    20481586.443
        50.000          20.000
 120035157.756 6  93360716.719 5  22455057.364    22455056.134    22455061.810
        40.000          34.000
 124641024.446 6  97122892.09745  23718393.086    23718392.119    23718397.148
        39.000          35.0004
 130154217.748 5 101418885.92042  24767525.030    24767524.945    24767524.585
        35.000          14.0004
 22  1  4  9  0 30.0000000  0 17R09G16G09G04R08G26G07G27G05R17R18G20
                                G08R10R01G30G18
 103803869.082 8  80736375.247 8  19439128.998    19439129.352    19439131.725
        52.000          48.000
 114576388.497 7  89280316.57545  21803161.421    21803160.668    21803162.550
        46.000          33.0004
 110859659.820 8  86384163.84048  21095891.673    21095891.321    21095895.053
        50.000          50.0004
 119005973.664 7  92731939.25144  22646085.185    22646085.295    22646088.560
        43.000          27.0004
 108874266.111 7  84680013.136 7  20331499.351    20331499.881    20331502.676
        46.000          46.000
 131152061.608 5 102196423.86142  24957409.000    24957407.773    24957413.558
        33.000          14.0004
 113248631.107 7  88245709.24148  21550497.025    21550496.712    21550497.684
        47.000          48.0004
 112516173.108 7  87674958.50647  21411112.413    21411111.957    21411115.901
        47.000          47.0004
 128836485.129 5 100392080.82642  24516767.892    24516767.080    24516770.056
        35.000          17.0004
 125649772.871 6  97727633.396 6  23480662.625    23480662.885    23480667.204
        39.000          38.000
 115839235.674 7  90097219.590 6  21700587.667    21700587.832    21700592.045
        46.000          41.000
 125944561.762 5  98138626.92042  23966450.548    23966448.757    23966451.726
        35.000          13.0004
 117170879.215 7  91302008.68446  22296873.720    22296873.011    22296878.083
        44.000          40.0004
 109104739.017 8  84859268.394 3  20467767.543    20467767.802    20467766.505
        50.000          20.000
 119936021.218 6  93283610.573 5  22436509.964    22436510.478    22436515.721
        39.000          34.000
 124543462.796 6  97046870.10045  23699828.036    23699827.332    23699831.547
        40.000          35.0004
 130133881.744 5 101403039.67142  24763655.276    24763654.446    24763655.159
        35.000          15.0004
 22  1  4  9  1  0.0000000  0 17R09G16G09G04R08G26G07G27G05R17R18G20
                                G08R10R01G30G18
 103829447.951 8  80756269.936 8  19443919.311    19443919.484    19443921.722
        53.000          48.000
 114658137.840 7  89344017.36445  21818717.973    21818717.269    21818718.651
        46.000          33.0004
 110904027.127 8  86418735.76148  21104334.548    21104334.187    21104337.768
        50.000          51.0004
 119104828.400 7  92808968.89644  22664896.505    22664896.459    22664900.327
        43.000          27.0004
 108875935.681 7  84681311.693 7  20331811.694    20331811.760    20331814.720
        47.000          45.000
 131259755.215 5 102280340.95742  24977901.308    24977900.307    24977906.706
        33.000          14.0004
 113183503.961 8  88194960.84648  21538103.744    21538103.324    21538104.415
        48.000          48.0004
 112482479.801 8  87648704.01648  21404700.582    21404700.290    21404704.293
        48.000          48.0004
 128796862.152 6 100361205.83143  24509228.911    24509227.508    24509229.963
        36.000          18.0004
 125740405.749 6  97798125.623 6  23497600.399    23497599.443    23497603.394
        37.000          38.000
 115833063.586 7  90092419.087 6  21699431.421    21699431.354    21699435.521
        46.000          41.000
 125958116.609 6  98149189.12242  23969031.390    23969028.928    23969030.372
        36.000          15.0004
 117081468.257 7  91232337.79646  22279858.776    22279858.541    22279863.877
        44.000          40.0004
 109031504.665 8  84802308.498 3  20454030.153    20454029.503    20454037.653
        50.000          20.000
 119837409.701 6  93206912.777 5  22418064.517    22418063.471    22418068.427
        39.000          35.000
 124446013.320 6  96970935.50245  23681283.383    23681282.496    23681287.467
        39.000          35.0004
 130114097.693 5 101387623.54342  24759889.057    24759888.978    24759891.449
        35.000          14.0004
 22  1  4  9  1 30.0000000  0 17R09G16G09G04R08G26G07G27G05R17R18G20
                                G08R10R01G30G18
 103855510.235 8  80776540.612 8  19448800.442    19448800.176    19448802.481
        53.000          50.000
 114740246.583 7  89407998.21545  21834342.803    21834341.861    21834343.496
        45.000          33.0004
 110948959.394 8  86453747.91148  21112884.738    21112884.495    21112888.029
        49.000          50.0004
 119203983.813 7  92886232.83144  22683765.529    22683765.007    22683768.667
        43.000          27.0004
 108878453.902 7  84683270.320 7  20332281.651    20332281.961    20332285.133
        46.000          47.000
 131367487.688 5 102364288.33742  24998402.956    24998400.419    24998405.290
        33.000          12.0004
 113118641.836 8  88144418.96148  21525760.680    21525760.390    21525761.466
        48.000          48.0004
 112449445.872 7  87622963.33447  21398414.627    21398414.078    21398418.114
        47.000          47.0004
 128757809.152 6 100330774.94943  24501795.121    24501795.912    24501797.365
        36.000          18.0004
 125831591.545 6  97869047.938 6  23514640.614    23514640.242    23514643.707
        38.000          37.000
 115827744.309 7  90088281.884 7  21698434.699    21698434.624    21698439.638
        45.000          42.000
 125972240.259 5  98160194.53942  23971717.598    23971715.699    23971719.213
        34.000          15.0004
 116992472.182 7  91162990.23346  22262923.389    22262922.993    22262928.312
        43.000          40.0004
 108958664.150 8  84745655.398 3  20440365.349    20440364.992    20440358.298
        50.000          20.000
 119739340.114 6  93130636.488 5  22399717.444    22399717.101    22399723.164
        40.000          35.000
 124348690.118 6  96895099.30345  23662764.053    23662762.686    23662767.729
        40.000          35.0004
 130094879.178 5 101372648.08542  24756232.036    24756231.339    24756232.878
        34.000          15.0004
 22  1  4  9  2  0.0000000  0 17R09G16G09G04R08G26G07G27G05R17R18G20
                                G08R10R01G30G18
 103882051.382 8  80797183.739 8  19453770.382    19453770.480    19453772.712
        53.000          50.000
 114822708.938 7  89472254.59845  21850035.111    21850033.951    21850035.529
        45.000          33.0004
 110994451.930 8  86489196.63448  21121542.223    21121541.507    21121544.963
        50.000          51.0004
 119303434.135 7  92963726.55744  22702690.350    22702690.021    22702693.318
        43.000          27.0004
 108881817.604 7  84685886.539 7  20332909.869    20332910.209    20332912.966
        46.000          47.000
 131475254.107 5 102448262.28441  25018909.009    25018908.438    25018913.904
        33.000          11.0004
 113054042.207 8  88094081.62248  21513467.591    21513467.501    21513468.562
        48.000          49.0004
 112417069.079 7  87597734.70847  21392253.245    21392252.980    21392256.947
        47.000          47.0004
 128719323.388 6 100300786.08243  24494472.817    24494471.299    24494474.751
        36.000          18.0004
 125923322.806 6  97940394.494 6  23531782.513    23531782.506    23531786.870
        38.000          38.000
 115823274.725 7  90084805.555 7  21697598.112    21697597.630    21697601.999
        46.000          42.000
 125986927.919 6  98171639.49742  23974512.326    23974511.400    23974514.446
        36.000          15.0004
 116903890.565 7  91093965.65246  22246067.294    22246066.515    22246071.937
        43.000          40.0004
 108886214.821 8  84689305.959 3  20426773.320    20426773.394    20426762.767
        50.000          20.000
 119641813.162 6  93054782.241 5  22381473.069    22381472.353    22381478.119
        39.000          35.000
 124251491.028 6  96819359.83246  23644267.430    23644266.553    23644270.909
        40.000          36.0004
 130076223.733 5 101358111.37042  24752683.379    24752681.561    24752683.695
        35.000          14.0004
 22  1  4  9  2 30.0000000  0 18R09G16G09G04R08G26G07G27G05R17R18G20
                                G08R10R01G30G18R19
 103909066.694 8  80818195.669 8  19458829.253    19458829.679    19458831.879
        53.000          50.000
 114905518.853 7  89536781.81345  21865793.297    21865792.012    21865793.980
        46.000          33.0004
 111040499.611 8  86525077.93748  21130304.473    21130304.021    21130307.735
        49.000          50.0004
 119403173.262 7  93041445.32644  22721670.797    22721670.225    22721672.447
        43.000          26.0004
 108886022.832 7  84689157.274 7  20333695.302    20333695.402    20333697.888
        46.000          47.000
 131583048.916 5 102532258.26842  25039422.135    25039421.991    25039427.389
        33.000          13.0004
 112989703.023 8  88043947.23348  21501224.195    21501224.068    21501225.094
        48.000          48.0004
 112385346.845 7  87573016.13047  21386217.025    21386216.432    21386220.489
        47.000          47.0004
 128681402.463 6 100271237.34843  24487255.580    24487256.539    24487258.630
        36.000          18.0004
 126015592.121 6  98012159.517 6  23549025.090    23549025.596    23549029.623
        38.000          38.000
 115819651.540 7  90081987.531 7  21696919.726    21696918.864    21696923.279
        46.000          42.000
 126002175.018 6  98183520.35242  23977413.702    23977412.179    23977416.138
        36.000          16.0004
 116815722.116 7  91025263.05746  22229288.870    22229288.574    22229293.858
        43.000          40.0004
 108814154.797 8  84633258.892 3  20413255.225    20413255.145    20413262.725
        50.000          20.000
 119544828.605 6  92979349.852 5  22363329.181    22363329.637    22363334.893
        39.000          34.000
 124154413.500 6  96743715.07246  23625793.569    23625792.803    23625797.990
        40.000          36.0004
 130058128.381 5 101344011.07842  24749239.022    24749239.360    24749239.273
        35.000          14.0004
 119813669.306 5  93188434.746 6  22397899.282    22397899.800    22397905.820
        34.000          37.000
 22  1  4  9  3  0.0000000  0 18R09G16G09G04R08G26G07G27G05R17R18G20
                                G08R10R01G30G18R19
 103936562.925 8  80839581.643 8  19463978.436    19463978.651    19463981.046
        53.000          51.000
 114988681.626 7  89601583.98145  21881618.560    21881617.344    21881619.088
        45.000          33.0004
 111087108.944 8  86561396.88648  21139174.049    21139173.552    21139177.138
        50.000          50.0004
 119503206.653 7  93119393.40144  22740706.132    22740705.482    22740708.336
        43.000          26.0004
 108891077.281 7  84693088.528 7  20334638.919    20334639.408    20334642.294
        47.000          47.000
 131690878.529 5 102616281.35041  25059940.052    25059940.642    25059946.487
        32.000          10.0004
 112925633.153 8  87994022.68748  21489032.537    21489031.926    21489033.009
        48.000          48.0004
 112354288.135 8  87548814.58247  21380306.545    21380305.992    21380310.194
        48.000          47.0004
 128644055.514 6 100242135.83043  24480149.994    24480149.016    24480150.585
        36.000          18.0004
 126108403.015 6  98084345.845 6  23566367.914    23566367.699    23566373.616
        37.000          38.000
 115816882.658 7  90079833.976 7  21696400.081    21696399.802    21696404.489
        46.000          42.000
 126017988.691 6  98195842.70342  23980424.078    23980421.558    23980425.011
        36.000          17.0004
 116727977.504 7  90956890.73346  22212591.106    22212591.260    22212596.760
        44.000          40.0004
 108742492.514 8  84577521.569 3  20399811.948    20399811.542    20399783.939
        50.000          20.000
 119448398.293 6  92904348.563 5  22345290.741    22345289.749    22345296.281
        39.000          35.000
 124057466.768 6  96668172.25446  23607344.862    23607344.575    23607349.135
        40.000          36.0004
 130040601.884 5 101330354.08942  24745902.116    24745901.551    24745905.626
        32.000          14.0004
 119711777.152 5  93109185.351 6  22378851.880    22378851.800    22378857.326
        34.000          37.000
 22  1  4  9  3 30.0000000  0 18R09G16G09G04R08G26G07G27G05R17R18G20
                                G08R10R01G30G18R19
 103964530.549 8  80861334.257 8  19469215.913    19469216.023    19469218.349
        52.000          50.000
 115072185.767 7  89666652.15245  21897508.853    21897508.059    21897509.301
        46.000          33.0004
 111134270.159 8  86598145.87548  21148148.367    21148147.972    21148151.709
        49.000          50.0004
 119603523.511 7  93197562.35844  22759795.714    22759795.440    22759798.125
        42.000          26.0004
 108896972.296 7  84697673.548 7  20335738.993    20335740.063    20335743.135
        47.000          47.000
 131798732.947 5 102700323.76942  25080465.071    25080464.562    25080470.414
        34.000          13.0004
 112861825.436 8  87944302.41548  21476890.321    21476889.793    21476890.761
        48.000          48.0004
 112323885.619 7  87525124.35547  21374520.685    21374520.587    21374524.822
        47.000          47.0004
 128607275.918 6 100213476.42643  24473150.177    24473150.922    24473152.102
        36.000          19.0004
 126201743.187 6  98156943.757 6  23583810.597    23583809.868    23583816.064
        36.000          37.000
 115814959.641 7  90078338.323 7  21696040.735    21696039.717    21696044.500
        46.000          42.000
 126034359.218 6  98208598.97342  23983538.516    23983537.497    23983540.242
        36.000          17.0004
 116640650.892 7  90888844.14346  22195973.965    22195973.448    22195979.018
        44.000          41.0004
 108671220.167 8  84522087.442 3  20386441.152    20386440.961    20386448.652
        49.000          20.000
 119352517.432 6  92829774.608 5  22327353.601    22327353.836    22327359.936
        40.000          35.000
 123960643.687 6  96592725.75745  23588920.940    23588919.770    23588924.228
        39.000          35.0004
 130023636.545 5 101317134.36142  24742673.748    24742673.747    24742676.820
        33.000          15.0004
 119610396.359 5  93030333.699 6  22359899.724    22359899.819    22359905.504
        34.000          37.000
 22  1  4  9  4  0.0000000  0 18R09G16G09G04R08G26G07G27G05R17R18G20
                                G08R10R01G30G18R19
 103992975.384 8  80883458.020 8  19474543.066    19474542.889    19474545.102
        52.000          49.000
 115156035.955 7  89731989.97345  21913464.758    21913463.870    21913465.721
        45.000          33.0004
 111181988.909 8  86635329.30548  21157229.329    21157228.518    21157232.314
        49.000          50.0004
 119704128.546 7  93275955.85944  22778940.272    22778940.009    22778943.061
        42.000          26.0004
 108903715.701 7  84702918.422 7  20336999.195    20336999.322    20337002.299
        47.000          46.000
 131906617.468 5 102784389.61242  25100996.510    25100994.193    25101001.498
        34.000          13.0004
 112798288.448 7  87894793.10948  21464798.970    21464799.062    21464800.083
        47.000          48.0004
 112294147.452 7  87501951.79948  21368862.018    21368861.601    21368865.700
        47.000          48.0004
 128571071.163 6 100185264.95343  24466262.070    24466261.595    24466263.805
        36.000          18.0004
 126295615.940 6  98229955.869 6  23601354.242    23601354.528    23601358.247
        37.000          37.000
 115813890.177 7  90077506.530 7  21695840.044    21695839.462    21695844.140
        46.000          42.000
 126051292.581 6  98221793.81942  23986761.231    23986760.538    23986762.905
        36.000          16.0004
 116553752.257 7  90821131.04246  22179437.674    22179437.229    22179442.673
        44.000          41.0004
 108600346.287 8  84466963.415 3  20373145.507    20373145.054    20373153.007
        50.000          20.000
 119257197.281 6  92755636.786 5  22309521.996    22309521.861    22309528.108
        40.000          35.000
 123863952.724 6  96517382.21646  23570520.691    23570520.212    23570525.362
        39.000          36.0004
 130007240.299 5 101304358.15042  24739555.565    24739554.246    24739557.439
        34.000          16.0004
 119509538.511 5  92951888.768 6  22341046.550    22341045.569    22341050.562
        34.000          36.000
 22  1  4  9  4 30.0000000  0 18R09G16G09G04R08G26G07G27G05R17R18G20
                                G08R10R01G30G18R19
 104021904.945 8  80905958.797 8  19479960.526    19479960.567    19479962.600
        52.000          50.000
 115240238.433 7  89797602.30645  21929487.894    21929487.462    21929488.951
        46.000          33.0004
 111230272.003 8  86672952.49248  21166417.134    21166416.473    21166420.303
        49.000          50.0004
 119805027.524 7  93354578.40844  22798140.687    22798140.369    22798142.952
        42.000          26.0004
 108911314.832 7  84708828.862 7  20338417.904    20338418.170    20338421.520
        46.000          46.000
 132014538.781 5 102868484.20642  25121530.514    25121530.921    25121537.417
        32.000          13.0004
 112735031.705 8  87845502.17848  21452762.101    21452761.674    21452762.657
        48.000          48.0004
 112265082.849 8  87479304.10348  21363330.802    21363330.751    21363334.790
        48.000          48.0004
 128535450.877 6 100157508.91843  24459482.379    24459482.974    24459484.564
        38.000          18.0004
 126390025.287 6  98303385.407 6  23618994.930    23618996.213    23619001.155
        37.000          37.000
 115813682.341 7  90077344.898 7  21695800.879    21695800.702    21695805.140
        46.000          42.000
 126068796.010 6  98235432.87542  23990091.300    23990090.480    23990093.814
        36.000          16.0004
 116467292.820 7  90753760.17746  22162984.580    22162984.529    22162989.813
        43.000          41.0004
 108529880.133 8  84412157.003 3  20359925.737    20359925.616    20359902.785
        49.000          20.000
 119162449.870 6  92681944.396 5  22291798.570    22291797.631    22291803.245
        40.000          35.000
 123767403.326 6  96442148.99446  23552148.310    23552147.220    23552151.989
        40.000          36.0004
 129991422.131 5 101292032.33542  24736544.605    24736544.025    24736548.183
        35.000          16.0004
 119409216.571 5  92873860.636 6  22322293.624    22322290.711    22322296.189
        34.000          36.000
 22  1  4  9  5  0.0000000  0 18R09G16G09G04R08G26G07G27G05R17R18G20
                                G08R10R01G30G18R19
 104051290.928 8  80928814.580 8  19485463.490    19485463.620    19485465.770
        53.000          49.000
 115324763.523 7  89863466.01445  21945572.281    21945571.864    21945573.328
        45.000          32.0004
 111279091.270 8  86710993.47148  21175706.707    21175706.471    21175710.305
        49.000          50.0004
 119906191.309 7  93433407.29444  22817391.261    22817390.858    22817394.267
        42.000          26.0004
 108919742.190 7  84715383.480 7  20339991.560    20339991.995    20339995.104
        46.000          46.000
 132122468.590 5 102952585.36441  25142068.044    25142068.052    25142075.765
        31.000          10.0004
 112672029.305 8  87796409.42848  21440773.111    21440772.746    21440773.668
        48.000          48.0004
 112236666.086 7  87457161.20348  21357923.448    21357923.220    21357927.062
        47.000          48.0004
 128500390.032 6 100130188.80643  24452810.779    24452810.238    24452811.694
        37.000          19.0004
 126484940.182 6  98377208.136 6  23636733.567    23636733.298    23636737.229
        36.000          36.000
 115814309.071 7  90077832.376 7  21695918.152    21695917.821    21695922.477
        46.000          42.000
 126086841.555 6  98249494.34242  23993527.280    23993525.050    23993527.818
        37.000          17.0004
 116381248.193 7  90686712.51846  22146610.995    22146610.776    22146615.854
        44.000          41.0004
 108459795.967 8  84357647.053 3  20346778.682    20346778.264    20346768.217
        50.000          20.000
 119068251.704 6  92608679.196 5  22274175.857    22274175.897    22274180.945
        40.000          34.000
 123670970.051 6  96367006.24246  23533797.491    23533796.906    23533801.810
        40.000          36.0004
 129976155.959 5 101280136.64342  24733639.581    24733638.602    24733641.826
        35.000          17.0004
 119309407.316 5  92796231.272 6  22303633.361    22303633.234    22303638.694
        34.000          37.000
 22  1  4  9  5 30.0000000  0 18R09G16G09G04R08G26G07G27G05R17R18G20
                                G08R10R01G30G18R19
 104081150.466 8  80952038.686 7  19491054.785    19491055.184    19491057.201
        52.000          47.000
 115409626.723 7  89929593.19645  21961721.569    21961720.847    21961722.521
        46.000          33.0004
 111328463.269 8  86749465.15948  21185102.269    21185101.789    21185105.481
        49.000          50.0004
 120007635.585 7  93512454.74744  22836695.309    22836695.525    22836698.540
        42.000          26.0004
 108929016.011 7  84722596.463 7  20341723.451    20341723.961    20341726.825
        46.000          45.000
 132230423.294 5 103036705.97341  25162611.406    25162613.315    25162619.688
        32.000          10.0004
 112609301.230 8  87747530.44148  21428836.059    21428835.887    21428836.943
        48.000          48.0004
 112208916.158 8  87435537.91747  21352643.002    21352642.603    21352646.462
        48.000          47.0004
 128465907.273 6 100103319.13343  24446247.666    24446248.800    24446250.501
        36.000          19.0004
 126580375.052 5  98451435.281 6  23654566.933    23654566.883    23654571.974
        35.000          36.000
 115815788.763 7  90078983.282 6  21696194.803    21696194.888    21696199.968
        45.000          41.000
 126105446.159 6  98263991.40342  23997066.750    23997064.640    23997067.992
        36.000          17.0004
 116295639.319 7  90620004.40246  22130320.695    22130319.913    22130324.812
        45.000          41.0004
 108390112.668 8  84303448.291 3  20333705.936    20333705.595    20333688.610
        50.000          20.000
 118974624.991 6  92535858.464 5  22256661.478    22256661.085    22256666.711
        40.000          35.000
 123574672.275 6  96291969.09746  23515472.215    23515471.417    23515476.731
        40.000          36.0004
 129961460.603 6 101268685.72742  24730842.368    24730844.758    24730844.045
        36.000          17.0004
 119210133.656 5  92719018.464 6  22285077.135    22285074.791    22285079.620
        34.000          36.000
 22  1  4  9  6  0.0000000  0 18R09G16G09G04R08G26G07G27G05R17R18G20
                                G08R10R01G30G18R19
 104111481.179 8  80975629.247 8  19496735.148    19496735.264    19496737.423
        53.000          49.000
 115494824.475 7  89995981.05545  21977934.128    21977933.280    21977934.776
        45.000          32.0004
 111378385.438 8  86788365.54248  21194601.968    21194601.675    21194605.290
        49.000          50.0004
 120109356.784 7  93591717.98344  22856051.944    22856052.327    22856055.626
        42.000          26.0004
 108939134.410 7  84730466.337 7  20343613.082    20343613.722    20343616.639
        47.000          47.000
 132338400.243 5 103120843.87342  25183159.661    25183159.805    25183165.758
        32.000          12.0004
 112546847.171 7  87698864.97248  21416951.581    21416951.224    21416952.245
        47.000          48.0004
 112181832.970 7  87414434.16748  21347489.042    21347488.813    21347492.550
        47.000          48.0004
 128432001.827 6 100076899.33043  24439796.922    24439797.012    24439797.901
        37.000          18.0004
 126676324.593 6  98526062.744 6  23672499.970    23672498.650    23672502.446
        36.000          36.000
 115818120.108 7  90080796.576 7  21696632.147    21696631.827    21696636.704
        46.000          42.000
 126124607.843 6  98278922.59543  24000712.120    24000712.002    24000714.690
        37.000          18.0004
 116210467.354 7  90553636.71946  22114112.490    22114112.176    22114116.959
        45.000          41.0004
 108320830.267 8  84249562.539 3  20320708.241    20320708.413    20320692.506
        50.000          20.000
 118881572.553 6  92463484.382 5  22239253.796    22239253.502    22239259.145
        39.000          35.000
 123478510.288 6  96217037.73846  23497173.189    23497172.283    23497177.792
        40.000          37.0004
 129947335.518 5 101257679.20942  24728155.526    24728154.721    24728158.115
        35.000          17.0004
 119111398.722 5  92642224.666 6  22266617.485    22266617.989    22266622.567
        35.000          37.000
 22  1  4  9  6 30.0000000  0 18R09G16G09G04R08G26G07G27G05R17R18G20
                                G08R10R01G30G18R19
 104142278.724 8  80999582.899 8  19502502.233    19502502.568    19502504.903
        52.000          50.000
 115580350.858 7  90062625.00345  21994209.114    21994208.294    21994210.137
        45.000          32.0004
 111428852.965 8  86827690.88448  21204205.248    21204205.306    21204208.890
        49.000          50.0004
 120211349.173 6  93671192.52544  22875460.645    22875460.662    22875463.787
        41.000          25.0004
 108950094.055 7  84738990.526 7  20345659.456    20345659.962    20345663.289
        46.000          47.000
 132446394.629 5 103204995.36442  25203710.679    25203709.445    25203715.978
        34.000          13.0004
 112484665.144 8  87650411.47848  21405118.842    21405118.344    21405119.467
        48.000          49.0004
 112155414.062 8  87393848.03648  21342462.258    21342461.608    21342465.134
        48.000          48.0004
 128398672.809 6 100050928.67643  24433453.736    24433454.077    24433456.541
        36.000          18.0004
 126772781.505 5  98601084.820 6  23690524.678    23690523.353    23690527.419
        35.000          36.000
 115821299.592 7  90083269.528 7  21697228.263    21697228.089    21697231.964
        46.000          42.000
 126144321.537 6  98294283.91842  24004464.282    24004463.907    24004464.579
        37.000          17.0004
 116125732.393 7  90487609.54446  22097988.071    22097987.528    22097992.398
        44.000          41.0004
 108251945.840 8  84195985.669 3  20307786.066    20307785.839    20307770.889
        50.000          20.000
 118789094.550 6  92391557.090 5  22221954.875    22221953.865    22221959.711
        40.000          35.000
 123382482.045 6  96142210.60246  23478900.154    23478898.838    23478903.408
        40.000          37.0004
 129933778.200 5 101247115.03742  24725575.329    24725573.968    24725577.065
        35.000          16.0004
 119013203.757 5  92565850.856 6  22248260.936    22248260.379    22248265.437
        34.000          37.000
 22  1  4  9  7  0.0000000  0 18R09G16G09G04R08G26G07G27G05R17R18G20
                                G08R10R01G30G18R19
 104173552.661 8  81023907.073 8  19508358.934    19508359.296    19508361.536
        53.000          50.000
 115666214.074 7  90129531.40645  22010548.583    22010547.832    22010549.211
        46.000          32.0004
 111479874.796 8  86867448.15548  21213914.774    21213914.403    21213917.902
        49.000          50.0004
 120313620.846 6  93750884.70344  22894922.915    22894922.377    22894925.599
        41.000          25.0004
 108961904.803 7  84748176.663 7  20347865.621    20347865.691    20347868.923
        46.000          46.000
 132554415.277 5 103289167.29142  25224266.413    25224264.544    25224271.168
        32.000          12.0004
 112422767.068 8  87602179.25048  21393339.925    21393339.525    21393340.525
        48.000          48.0004
 112129670.823 7  87373788.40148  21337562.951    21337562.664    21337566.428
        47.000          48.0004
 128365930.731 6 100025415.40943  24427223.797    24427224.449    24427225.625
        37.000          19.0004
 126869752.314 5  98676506.622 6  23708644.377    23708644.248    23708649.468
        35.000          36.000
 115825337.958 7  90086410.500 7  21697983.980    21697984.313    21697988.361
        46.000          42.000
 126164597.131 6  98310083.10742  24008322.690    24008320.512    24008324.065
        36.000          16.0004
 116041446.906 7  90421932.59346  22081949.213    22081948.549    22081953.073
        45.000          41.0004
 108183471.447 8  84142727.359 3  20294940.496    20294940.407    20294932.058
        50.000          20.000
 118697205.331 6  92320087.747 5  22204763.054    22204763.743    22204770.418
        39.000          35.000
 123286599.342 6  96067496.87946  23460654.076    23460653.256    23460657.785
        40.000          37.0004
 129920799.634 5 101237001.90642  24723104.835    24723107.027    24723109.049
        35.000          16.0004
 118915563.416 5  92489908.376 6  22230008.855    22230008.069    22230013.189
        35.000          37.000
 22  1  4  9  7 30.0000000  0 18R09G16G09G04R08G26G07G27G05R17R18G20
                                G08R10R01G30G18R19
 104205291.396 8  81048592.764 8  19514302.761    19514302.804    19514305.069
        52.000          50.000
 115752400.781 7  90196689.89245  22026949.278    22026948.434    22026949.825
        44.000          32.0004
 111531439.140 8  86907628.16948  21223727.335    21223726.783    21223730.442
        49.000          49.0004
 120416159.094 7  93830784.60044  22914434.690    22914434.255    22914438.047
        42.000          25.0004
 108974556.301 7  84758016.732 7  20350227.750    20350228.318    20350231.445
        46.000          46.000
 132662450.433 5 103373350.58141  25244821.516    25244821.781    25244831.306
        31.000          11.0004
 112361143.800 8  87554161.15848  21381613.301    21381612.925    21381614.060
        48.000          48.0004
 112104593.860 8  87354247.94548  21332791.131    21332790.609    21332794.493
        48.000          48.0004
 128333766.447 6 100000352.35643  24421101.656    24421102.440    24421105.558
        36.000          19.0004
 126967222.441 5  98752316.764 6  23726860.305    23726859.188    23726863.484
        35.000          37.000
 115830224.438 7  90090211.127 7  21698899.513    21698899.033    21698903.656
        45.000          42.000
 126185422.869 6  98326310.97742  24012284.443    24012283.748    24012287.020
        36.000          17.0004
 115957603.317 7  90356599.97746  22065994.132    22065993.500    22065998.278
        44.000          41.0004
 108115397.551 8  84089781.451 3  20282169.873    20282169.628    20282156.595
        50.000          20.000
 118605898.557 6  92249071.409 5  22187684.123    22187683.100    22187688.518
        40.000          35.000
 123190853.323 6  95992889.65846  23442434.467    23442433.438    23442438.152
        41.000          37.0004
 129908390.248 6 101227332.22642  24720744.819    24720744.069    24720746.097
        36.000          15.0004
 118818471.537 5  92414392.513 6  22211856.956    22211857.410    22211863.083
        35.000          37.000
 22  1  4  9  8  0.0000000  0 18R09G16G09G04R08G26G07G27G05R17R18G20
                                G08R10R01G30G18R19
 104237491.537 8  81073637.328 8  19520332.816    19520333.019    19520335.133
        53.000          50.000
 115838906.839 7  90264097.20845  22043411.288    22043410.167    22043411.491
        45.000          32.0004
 111583542.300 8  86948228.04048  21233641.984    21233641.650    21233645.324
        49.000          50.0004
 120518959.376 7  93910888.68244  22933997.185    22933997.023    22934000.635
        42.000          25.0004
 108988045.118 7  84768508.033 7  20352747.202    20352747.192    20352750.463
        46.000          47.000
 132770496.420 5 103457542.27041  25265386.985    25265385.885    25265390.090
        34.000           9.0004
 112299794.808 8  87506356.77248  21369938.862    21369938.668    21369939.657
        48.000          48.0004
 112080181.853 7  87335225.62948  21328145.556    21328145.015    21328149.205
        47.000          48.0004
 128302178.708 6  99975738.51943  24415091.636    24415091.834    24415094.795
        36.000          19.0004
 127065185.856 6  98828510.571 6  23745165.294    23745166.975    23745169.757
        37.000          36.000
 115835956.469 7  90094669.395 7  21699973.860    21699973.629    21699977.178
        46.000          42.000
 126206795.369 6  98342964.88342  24016352.664    24016351.268    24016354.305
        37.000          17.0004
 115874202.412 7  90291612.29347  22050123.337    22050122.867    22050127.586
        45.000          42.0004
 108047723.254 8  84037145.355 3  20269474.418    20269474.216    20269465.259
        50.000          20.000
 118515175.454 6  92178509.020 5  22170712.547    22170711.868    22170717.006
        40.000          35.000
 123095243.082 6  95918388.24146  23424240.139    23424238.994    23424243.267
        41.000          37.0004
 129896548.536 5 101218104.91942  24718490.746    24718491.098    24718493.899
        35.000          16.0004
 118721930.271 5  92339304.878 6  22193808.764    22193810.506    22193814.354
        35.000          37.000
 22  1  4  9  8 30.0000000  0 18R09G16G09G04R08G26G07G27G05R17R18G20
                                G08R10R01G30G18R19
 104270158.601 8  81099045.059 8  19526450.106    19526450.300    19526452.614
        52.000          49.000
 115925736.496 7  90331756.68545  22059934.085    22059933.313    22059934.447
        45.000          32.0004
 111636189.447 8  86989251.80848  21243660.579    21243660.124    21243663.818
        49.000          50.0004
 120622025.939 6  93991200.25044  22953609.952    22953610.466    22953613.230
        41.000          25.0004
 109002378.137 7  84779655.943 7  20355423.176    20355423.874    20355426.979
        46.000          46.000
 132878558.415 5 103541746.48241  25285948.446    25285948.021    25285952.422
        32.000          10.0004
 112238727.914 8  87458772.21048  21358318.464    21358318.054    21358319.077
        48.000          48.0004
 112056442.338 8  87316727.33648  21323627.744    21323627.533    21323631.645
        48.000          48.0004
 128271175.956 6  99951580.57643  24409192.306    24409192.901    24409193.764
        37.000          19.0004
 127163645.211 6  98905090.159 5  23763565.903    23763565.640    23763568.353
        36.000          35.000
 115842540.890 7  90099790.640 6  21701206.723    21701206.658    21701210.954
        46.000          41.000
 126228720.264 6  98360049.20642  24020525.568    24020524.183    24020526.568
        37.000          17.0004
 115791253.243 7  90226976.60047  22034338.736    22034338.095    22034342.860
        45.000          42.0004
 107980455.811 8  83984826.685 3  20256855.302    20256854.869    20256847.892
        50.000          20.000
 118425046.831 6  92108409.042 5  22153851.485    22153851.255    22153856.400
        40.000          35.000
 122999776.796 6  95843998.98646  23406072.580    23406072.246    23406076.885
        40.000          37.0004
 129885281.695 6 101209325.54642  24716348.319    24716347.077    24716348.408
        36.000          15.0004
 118625950.864 5  92264654.268 6  22175869.307    22175867.717    22175873.854
        35.000          38.000
 22  1  4  9  9  0.0000000  0 18R09G16G09G04R08G26G07G27G05R17R18G20
                                G08R10R01G30G18R19
 104303285.219 8  81124810.214 8  19532653.872    19532653.897    19532656.065
        52.000          49.000
 116012880.714 7  90399661.27645  22076517.235    22076515.866    22076517.524
        45.000          31.0004
 111689372.571 8  87030693.21448  21253780.803    21253780.571    21253784.294
        49.000          50.0004
 120725350.043 6  94071712.50144  22973272.260    22973272.468    22973275.203
        41.000          25.0004
 109017547.784 7  84791454.563 7  20358256.040    20358256.532    20358259.603
        46.000          46.000
 132986628.534 5 103625957.02042  25306514.827    25306513.089    25306520.746
        35.000          12.0004
 112177938.011 8  87411403.47748  21346750.699    21346749.969    21346751.035
        48.000          49.0004
 112033369.799 7  87298748.76848  21319237.137    21319236.964    21319240.986
        46.000          48.0004
 128240752.588 6  99927874.08943  24403403.698    24403403.720    24403405.618
        37.000          19.0004
 127262589.564 6  98982046.935 6  23782057.573    23782056.970    23782060.366
        37.000          37.000
 115849970.565 7  90105569.306 7  21702599.028    21702598.502    21702603.173
        45.000          42.000
 126251189.700 6  98377557.86843  24024800.162    24024799.323    24024802.587
        37.000          18.0004
 115708752.554 7  90162690.36047  22018638.670    22018638.635    22018643.605
        45.000          42.0004
 107913589.917 8  83932819.418 3  20244311.067    20244310.924    20244318.567
        50.000          20.000
 118335509.778 6  92038769.121 5  22137100.959    22137100.748    22137106.961
        40.000          35.000
 122904449.443 6  95769717.98746  23387932.107    23387931.785    23387937.026
        41.000          37.0004
 129874584.029 6 101200989.69442  24714311.190    24714311.538    24714314.872
        36.000          16.0004
 118530531.469 5  92190439.218 6  22158031.434    22158030.426    22158035.636
        35.000          37.000
 22  1  4  9  9 30.0000000  0 18R09G16G09G04R08G26G07G27G05R17R18G20
                                G08R10R01G30G18R19
 104336878.848 8  81150938.595 8  19538944.661    19538944.973    19538947.141
        52.000          50.000
 116100345.447 7  90467815.61445  22093160.988    22093160.257    22093161.297
        44.000          31.0004
 111743098.710 8  87072557.75048  21264004.710    21264004.253    21264008.070
        49.000          49.0004
 120828937.723 6  94152430.13844  22992984.042    22992984.422    22992987.465
        41.000          25.0004
 109033562.419 7  84803910.401 7  20361246.573    20361247.416    20361250.299
        46.000          47.000
 133094713.795 5 103710179.32742  25327081.764    25327080.810    25327087.948
        33.000          12.0004
 112117435.340 8  87364258.56548  21335237.206    21335236.749    21335237.748
        48.000          48.0004
 112010973.425 7  87281297.08248  21314975.250    21314974.997    21314978.924
        47.000          48.0004
 128210917.343 6  99904625.87943  24397726.360    24397725.937    24397728.001
        37.000          20.0004
 127362023.935 6  99059384.865 6  23800635.827    23800637.555    23800640.842
        36.000          36.000
 115858253.998 7  90112011.997 7  21704150.475    21704150.145    21704154.664
        45.000          42.000
 126274210.826 6  98395496.41942  24029180.882    24029180.001    24029182.560
        37.000          17.0004
 115626710.998 7  90098761.87247  22003026.950    22003026.700    22003031.607
        45.000          42.0004
 107847135.120 8  83881132.161 3  20231844.633    20231844.445    20231852.133
        50.000          20.000
 118246576.684 6  91969598.979 5  22120465.583    22120464.941    22120469.611
        40.000          35.000
 122809270.852 6  95695552.90446  23369820.480    23369819.875    23369824.759
        40.000          37.0004
 129864464.520 5 101193104.41242  24712385.549    24712385.295    24712387.877
        35.000          17.0004
 118435684.371 6  92116669.278 6  22140301.535    22140299.966    22140305.098
        36.000          38.000
 22  1  4  9 10  0.0000000  0 18R09G16G09G04R08G26G07G27G05R17R18G20
                                G08R10R01G30G18R19
 104370934.734 8  81177426.508 8  19545322.559    19545322.638    19545324.540
        53.000          48.000
 116188124.939 7  90536215.22045  22109865.281    22109864.203    22109865.294
        45.000          31.0004
 111797362.754 8  87114841.43148  21274330.851    21274330.347    21274334.129
        49.000          50.0004
 120932783.134 6  94233348.61444  23012745.165    23012745.138    23012748.516
        41.000          24.0004
 109050417.697 7  84817020.064 7  20364394.721    20364395.131    20364397.974
        47.000          46.000
 133202809.316 5 103794409.64742  25347650.960    25347650.507    25347658.216
        32.000          13.0004
 112057217.114 8  87317335.29848  21323777.987    21323777.678    21323778.449
        49.000          48.0004
 111989250.515 8  87264370.17648  21310841.560    21310841.198    21310845.056
        48.000          48.0004
 128181668.155 6  99881834.32143  24392160.028    24392159.286    24392161.633
        37.000          20.0004
 127461940.721 5  99137097.966 6  23819306.092    23819307.659    23819313.343
        35.000          36.000
 115867387.303 7  90119115.697 6  21705862.109    21705861.190    21705865.362
        45.000          41.000
 126297779.091 6  98413861.27242  24033666.667    24033665.657    24033666.283
        37.000          17.0004
 115545128.107 7  90035190.78447  21987502.266    21987501.934    21987506.923
        45.000          42.0004
 107781089.249 8  83829763.602 3  20219454.329    20219454.309    20219456.509
        50.000          20.000
 118158247.598 6  91900898.621 6  22103940.048    22103939.591    22103946.660
        39.000          36.000
 122714238.952 6  95621502.13646  23351736.885    23351736.237    23351740.986
        41.000          38.0004
 129854920.180 6 101185667.30442  24710568.494    24710569.642    24710571.564
        37.000          16.0004
 118341410.566 5  92043345.252 6  22122677.013    22122676.503    22122681.999
        35.000          38.000
 22  1  4  9 10 30.0000000  0 18R09G16G09G04R08G26G07G27G05R17R18G20
                                G08R10R01G30G18R19
 104405445.349 8  81204268.106 7  19551785.075    19551785.192    19551787.506
        52.000          47.000
 116276210.469 7  90604853.30345  22126626.601    22126626.156    22126627.570
        44.000          31.0004
 111852156.767 8  87157538.07448  21284757.665    21284757.206    21284760.953
        49.000          50.0004
 121036877.557 6  94314461.12244  23032554.106    23032553.596    23032556.846
        41.000          25.0004
 109068106.108 7  84830777.722 7  20367697.649    20367698.234    20367701.099
        46.000          45.000
 133310907.271 5 103878641.80342  25368221.778    25368222.647    25368225.782
        32.000          12.0004
 111997278.553 8  87270629.96948  21312371.775    21312371.619    21312372.492
        48.000          48.0004
 111968195.543 8  87247963.74348  21306835.006    21306834.625    21306838.470
        48.000          48.0004
 128152999.495 6  99859495.13743  24386703.260    24386704.178    24386706.835
        36.000          20.0004
 127562329.190 6  99215177.944 6  23838070.536    23838071.505    23838072.416
        36.000          36.000
 115877363.542 7  90126875.019 6  21707729.349    21707729.271    21707734.101
        45.000          41.000
 126321886.432 6  98432646.24242  24038253.719    24038251.751    24038255.344
        38.000          17.0004
 115464000.311 7  89971974.31747  21972064.230    21972063.906    21972068.937
        45.000          42.0004
 107715446.405 8  83778707.620 3  20207139.730    20207139.513    20207147.230
        50.000          20.000
 118070519.983 6  91832666.065 6  22087530.476    22087528.878    22087534.781
        40.000          36.000
 122619348.967 6  95547561.94246  23333679.681    23333679.006    23333683.714
        40.000          38.0004
 129845945.305 6 101178673.96342  24708861.329    24708860.399    24708863.127
        36.000          17.0004
 118247707.953 5  91970465.492 6  22105159.942    22105159.032    22105164.495
        35.000          37.000
 22  1  4  9 11  0.0000000  0 17R09G16G09G04R08G07G27G05R17R18G20G08
                                R10R01G30G18R19
 104440442.474 8  81231488.098 8  19558338.928    19558339.051    19558341.279
        52.000          49.000
 116364631.402 7  90673752.72645  22143452.811    22143452.070    22143453.435
        44.000          31.0004
 111907511.385 8  87200671.54848  21295291.011    21295290.787    21295294.533
        49.000          49.0004
 121141250.869 7  94395790.94944  23052415.692    23052414.949    23052418.968
        42.000          24.0004
 109086660.246 7  84845208.712 7  20371161.920    20371162.820    20371165.869
        46.000          47.000
 111937653.453 8  87224168.86748  21301025.817    21301025.302    21301026.222
        48.000          48.0004
 111947841.393 8  87232103.40548  21302961.784    21302961.327    21302965.204
        48.000          48.0004
 128124944.422 6  99837634.05943  24381364.812    24381364.756    24381367.421
        37.000          19.0004
 127663218.101 6  99293647.184 6  23856922.479    23856922.879    23856927.080
        36.000          36.000
 115888214.915 7  90135315.005 7  21709761.823    21709762.087    21709767.108
        45.000          42.000
 126346563.905 6  98451875.45142  24042948.722    24042947.409    24042950.274
        37.000          16.0004
 115383362.196 7  89909139.42947  21956719.176    21956718.947    21956724.040
        45.000          42.0004
 107650240.466 8  83727992.472 3  20194907.966    20194907.293    20194901.670
        51.000          20.000
 117983430.186 6  91764929.600 6  22071237.324    22071236.897    22071243.264
        40.000          36.000
 122524634.464 6  95473758.49046  23315656.108    23315655.338    23315660.432
        41.000          38.0004
 129837572.601 6 101172149.82343  24707268.956    24707267.528    24707270.908
        37.000          18.0004
 118154614.023 5  91898059.159 6  22087758.784    22087756.465    22087761.657
        35.000          38.000
 22  1  4  9 11 30.0000000  0 17R09G16G09G04R08G07G27G05R17R18G20G08
                                R10R01G30G18R19
 104475893.243 8  81259060.923 8  19564977.759    19564977.810    19564980.113
        52.000          50.000
 116453354.299 7  90742887.45645  22160336.235    22160335.338    22160337.280
        44.000          31.0004
 111963393.861 8  87244216.33948  21305925.431    21305924.922    21305928.557
        49.000          49.0004
 121245869.508 6  94477311.94144  23072323.877    23072324.210    23072327.846
        41.000          24.0004
 109106047.383 7  84860287.592 7  20374782.728    20374783.282    20374786.132
        46.000          47.000
 111878311.997 8  87177928.79548  21289733.543    21289733.089    21289733.989
        49.000          49.0004
 111928157.636 7  87216765.45448  21299216.020    21299215.722    21299219.517
        47.000          48.0004
 128097473.322 6  99816228.05143  24376138.794    24376137.139    24376139.152
        37.000          19.0004
 127764571.703 6  99372477.821 6  23875861.840    23875862.469    23875867.253
        36.000          36.000
 115899909.237 7  90144410.604 7  21711953.362    21711953.198    21711958.164
        45.000          42.000
 126371779.559 6  98471524.02142  24047748.373    24047747.416    24047748.774
        37.000          17.0004
 115303185.264 7  89846663.90047  21941462.251    21941461.905    21941466.619
        45.000          42.0004
 107585441.007 8  83677593.021 3  20182751.282    20182751.065    20182747.271
        51.000          20.000
 117896950.370 6  91697667.566 6  22055059.782    22055059.666    22055065.458
        41.000          36.000
 122430065.710 6  95400068.61546  23297660.702    23297659.704    23297664.093
        41.000          38.0004
 129829771.327 6 101166070.94842  24705783.660    24705784.082    24705784.208
        36.000          17.0004
 118062100.856 5  91826104.544 6  22070462.052    22070461.535    22070466.948
        35.000          38.000
 22  1  4  9 12  0.0000000  0 17R09G16G09G04R08G07G27G05R17R18G20G08
                                R10R01G30G18R19
 104511795.816 8  81286985.143 8  19571701.173    19571701.299    19571703.624
        53.000          49.000
 116542376.201 7  90812255.17345  22177276.243    22177275.608    22177277.375
        44.000          31.0004
 112019801.747 8  87288170.53848  21316659.668    21316659.059    21316662.624
        49.000          49.0004
 121350730.260 6  94559021.57644  23092278.361    23092278.317    23092281.493
        41.000          24.0004
 109126265.983 7  84876013.175 7  20378558.121    20378559.230    20378562.073
        46.000          47.000
 111819254.654 8  87131910.10548  21278495.438    21278494.816    21278495.662
        48.000          49.0004
 111909144.164 8  87201949.80548  21295597.819    21295597.589    21295601.390
        48.000          48.0004
 128070585.371 6  99795276.40743  24371020.761    24371021.397    24371023.589
        37.000          19.0004
 127866385.050 5  99451666.030 5  23894889.996    23894888.839    23894891.274
        35.000          34.000
 115912445.348 7  90154160.922 7  21714301.098    21714301.456    21714306.501
        45.000          42.000
 126397530.911 6  98491590.01242  24052649.163    24052648.097    24052649.483
        36.000          17.0004
 115223471.645 7  89784549.39147  21926292.950    21926292.649    21926297.703
        44.000          42.0004
 107521047.980 8  83627509.632 3  20170671.202    20170670.821    20170663.209
        50.000          20.000
 117811083.285 6  91630882.085 6  22038997.211    22038996.400    22039002.503
        41.000          36.000
 122335643.362 6  95326492.81046  23279693.003    23279691.733    23279696.827
        41.000          38.0004
 129822541.143 6 101160437.05742  24704408.920    24704407.557    24704409.264
        37.000          15.0004
 117970171.665 5  91754604.115 6  22053278.093    22053276.877    22053281.519
        35.000          38.000
 22  1  4  9 12 30.0000000  0 17R09G16G09G04R08G07G27G05R17R18G20G08
                                R10R01G30G18R19
 104548146.652 8  81315258.022 8  19578508.707    19578508.653    19578510.831
        53.000          50.000
 116631692.518 7  90881852.30745  22194273.206    22194272.393    22194273.406
        44.000          31.0004
 112076731.171 8  87332531.13748  21327492.603    21327492.393    21327495.952
        49.000          49.0004
 121455828.518 6  94640916.30744  23112278.326    23112277.653    23112281.397
        41.000          24.0004
 109147312.741 7  84892382.876 7  20382489.316    20382489.640    20382492.433
        46.000          46.000
 111760480.631 8  87086112.19648  21267310.581    21267310.473    21267311.313
        49.000          48.0004
 111890799.362 8  87187655.20148  21292106.962    21292106.615    21292110.467
        48.000          48.0004
 128044279.531 6  99774778.38843  24366016.030    24366015.395    24366017.726
        37.000          19.0004
 127968651.681 6  99531206.851 5  23913999.604    23913999.984    23914002.917
        36.000          34.000
 115925820.561 7  90164563.866 7  21716807.709    21716806.917    21716811.771
        45.000          42.000
 126423814.389 6  98512070.66042  24057649.947    24057648.037    24057650.941
        37.000          16.0004
 115144221.381 7  89722795.94447  21911212.239    21911211.992    21911216.836
        45.000          42.0004
 107457059.931 8  83577740.820 3  20158667.207    20158667.185    20158674.707
        51.000          20.000
 117725830.151 6  91564574.137 6  22023047.599    22023047.891    22023053.411
        40.000          36.000
 122241366.698 6  95253030.52846  23261751.883    23261751.179    23261755.872
        41.000          38.0004
 129815880.384 6 101155246.89942  24703140.562    24703140.715    24703141.641
        36.000          17.0004
 117878828.795 5  91683559.744 6  22036202.377    22036200.947    22036206.042
        35.000          38.000
 22  1  4  9 13  0.0000000  0 17R09G16G09G04R08G07G27G05R17R18G20G08
                                R10R01G30G18R19
 104584957.498 8  81343888.677 8  19585402.021    19585402.231    19585404.328
        52.000          50.000
 116721313.578 7  90951686.89445  22211327.343    22211326.299    22211327.835
        44.000          31.0004
 112134193.198 8  87377306.74848  21338427.613    21338427.097    21338430.541
        48.000          49.0004
 121561174.654 6  94723004.17443  23132324.395    23132324.424    23132328.236
        40.000          23.0004
 109169199.803 7  84909406.145 7  20386576.825    20386576.979    20386579.764
        47.000          47.000
 111702004.200 8  87040546.17248  21256182.853    21256182.824    21256183.647
        48.000          49.0004
 111873136.548 8  87173892.00748  21288746.110    21288745.370    21288749.132
        48.000          48.0004
 128018569.530 6  99754744.64543  24361122.030    24361122.296    24361124.519
        37.000          19.0004
 128071380.663 6  99611107.217 6  23933198.031    23933198.656    23933200.421
        36.000          36.000
 115940046.773 7  90175628.698 7  21719472.996    21719472.638    21719477.090
        45.000          42.000
 126450641.152 6  98532974.62543  24062754.096    24062753.427    24062755.760
        36.000          18.0004
 115065449.587 7  89661415.33847  21896222.734    21896222.219    21896226.925
        45.000          43.0004
 107393490.652 8  83528297.936 3  20146741.761    20146741.544    20146749.261
        51.000          20.000
 117641207.949 6  91498756.900 6  22007218.397    22007217.084    22007223.200
        40.000          36.000
 122147249.886 6  95179692.80346  23243842.271    23243841.328    23243846.473
        41.000          38.0004
 129809802.066 5 101150510.53542  24701983.006    24701983.452    24701984.885
        35.000          16.0004
 117788089.501 5  91612984.790 6  22019240.827    22019238.974    22019243.311
        35.000          38.000
 22  1  4  9 13 30.0000000  0 17R09G16G09G04R08G07G27G05R17R18G20G08
                                R10R01G30G18R19
 104622214.681 8  81372866.488 8  19592378.814    19592379.096    19592381.459
        52.000          50.000
 116811223.792 7  91021746.80645  22228436.564    22228435.670    22228437.013
        44.000          30.0004
 112192173.641 8  87422486.31748  21349460.732    21349460.378    21349463.818
        48.000          48.0004
 121666753.711 6  94805273.54443  23152414.853    23152416.015    23152419.871
        40.000          23.0004
 109191913.514 7  84927072.367 7  20390817.586    20390818.232    20390821.138
        46.000          46.000
 111643814.385 8  86995203.48748  21245109.834    21245109.660    21245110.469
        48.000          49.0004
 111856143.834 7  87160650.96348  21285511.752    21285511.724    21285515.443
        47.000          48.0004
 127993443.772 6  99735166.15943  24356340.803    24356340.926    24356343.446
        36.000          18.0004
 128174555.164 6  99691354.122 6  23952477.877    23952478.060    23952482.051
        36.000          36.000
 115955110.831 7  90187345.179 7  21722295.004    21722294.629    21722299.070
        45.000          42.000
 126477997.292 6  98554291.08742  24067961.014    24067959.716    24067960.952
        38.000          17.0004
 114987146.378 7  89600399.86547  21881322.172    21881321.563    21881326.300
        45.000          43.0004
 107330329.092 8  83479172.733 3  20134893.127    20134892.685    20134889.531
        51.000          20.000
 117557207.364 6  91433423.163 6  21991504.484    21991503.343    21991509.020
        40.000          36.000
 122053281.894 6  95106471.04146  23225960.945    23225959.854    23225964.788
        41.000          38.0004
 129804294.171 5 101146218.67442  24700933.659    24700934.740    24700938.251
        35.000          16.0004
 117697944.771 5  91542872.288 6  22002387.663    22002386.355    22002392.000
        35.000          38.000
 22  1  4  9 14  0.0000000  0 17R09G16G09G04R08G07G27G05R17R18G20G08
                                R10R01G30G18R19
 104659923.221 8  81402195.355 8  19599440.622    19599440.851    19599443.041
        52.000          49.000
 116901427.646 7  91092035.52445  22245601.535    22245600.849    22245602.185
        44.000          31.0004
 112250676.871 8  87468073.25548  21360593.108    21360593.189    21360596.572
        48.000          49.0004
 121772569.368 6  94887727.25443  23172551.142    23172551.286    23172554.709
        40.000          22.0004
 109215459.326 7  84945385.775 7  20395214.599    20395215.232    20395218.270
        46.000          46.000
 111585917.853 8  86950089.32948  21234092.609    21234092.274    21234093.041
        48.000          49.0004
 111839827.795 8  87147937.19648  21282407.432    21282406.945    21282410.568
        48.000          48.0004
 127968908.513 6  99716047.79243  24351672.860    24351674.075    24351674.849
        37.000          19.0004
 128278177.172 6  99771949.089 5  23971841.922    23971841.943    23971844.350
        36.000          35.000
 115971018.306 7  90199717.659 7  21725275.487    21725274.635    21725279.180
        46.000          42.000
 126505887.436 6  98576023.68543  24073268.449    24073267.550    24073269.716
        38.000          18.0004
 114909320.868 7  89539756.64347  21866512.425    21866511.847    21866516.463
        45.000          43.0004
 107267582.048 8  83430368.977 3  20123121.863    20123121.547    20123129.363
        51.000          20.000
 117473838.132 6  91368580.456 5  21975908.288    21975907.196    21975912.640
        40.000          35.000
 121959470.221 6  95033371.09446  23208108.365    23208107.707    23208112.919
        40.000          38.0004
 129799363.085 5 101142376.28442  24699995.070    24699996.585    24699999.188
        34.000          16.0004
 117608405.162 5  91473230.418 6  21985647.725    21985648.083    21985653.517
        35.000          38.000
 22  1  4  9 14 30.0000000  0 17R09G16G09G04R08G07G27G05R17R18G20G08
                                R10R01G30G18R19
 104698082.654 8  81431874.922 8  19606586.754    19606586.805    19606589.126
        53.000          50.000
 116991922.940 7  91162551.33645  22262822.635    22262821.812    22262822.899
        44.000          30.0004
 112309702.013 8  87514066.87348  21371825.215    21371825.203    21371828.629
        48.000          49.0004
 121878620.127 6  94970364.18443  23192731.865    23192732.027    23192736.368
        40.000          22.0004
 109239836.692 7  84964345.937 7  20399767.961    20399767.749    20399770.475
        46.000          46.000
 111528317.120 8  86905205.66148  21223131.469    21223131.218    21223131.916
        48.000          49.0004
 111824189.843 7  87135751.80048  21279430.988    21279431.095    21279434.868
        47.000          48.0004
 127944965.941 6  99697391.24543  24347117.061    24347116.900    24347118.471
        37.000          19.0004
 128382243.555 6  99852889.669 6  23991290.104    23991289.265    23991295.129
        36.000          36.000
 115987768.952 7  90212745.934 7  21728413.501    21728412.735    21728417.400
        45.000          42.000
 126534311.081 6  98598171.99242  24078676.724    24078675.923    24078677.401
        36.000          17.0004
 114831976.099 7  89479488.04247  21851794.559    21851793.718    21851798.259
        46.000          43.0004
 107205251.015 8  83381889.338 3  20111428.635    20111428.232    20111436.135
        51.000          20.000
 117391104.758 6  91304232.310 5  21960432.298    21960430.799    21960435.671
        41.000          35.000
 121865817.254 6  94960394.83446  23190287.414    23190286.576    23190291.253
        41.000          38.0004
 129795010.018 6 101138984.25743  24699168.366    24699169.048    24699172.057
        36.000          18.0004
 117519475.897 5  91404063.256 6  21969025.338    21969023.721    21969029.174
        35.000          38.000
 22  1  4  9 15  0.0000000  0 17R09G16G09G04R08G07G27G05R17R18G20G08
                                R10R01G30G18R19
 104736684.907 8  81461898.903 8  19613815.399    19613815.684    19613817.992
        53.000          48.000
 117082700.161 7  91233286.83545  22280096.527    22280095.944    22280097.415
        44.000          30.0004
 112369240.185 8  87560460.25348  21383155.476    21383154.966    21383158.243
        48.000          48.0004
 121984896.340 6  95053176.78543  23212955.940    23212954.858    23212959.434
        40.000          22.0004
 109265037.298 7  84983946.406 7  20404472.890    20404473.754    20404476.342
        46.000          45.000
 111471006.941 8  86860548.40248  21212225.553    21212225.368    21212226.116
        49.000          49.0004
 111809223.302 8  87124089.57148  21276583.248    21276583.136    21276586.893
        48.000          49.0004
 127921608.856 6  99679190.94643  24342671.890    24342671.683    24342672.959
        37.000          18.0004
 128486742.539 6  99934166.726 6  24010816.521    24010818.684    24010820.200
        36.000          36.000
 116005355.104 7  90226424.051 6  21731707.282    21731707.078    21731711.571
        45.000          41.000
 126563259.660 6  98620729.28142  24084186.035    24084183.395    24084186.327
        36.000          16.0004
 114755107.277 7  89419590.32147  21837166.477    21837165.981    21837170.778
        46.000          44.0004
 107143330.068 8  83333728.534 3  20099812.183    20099811.977    20099802.576
        51.000          20.000
 117309003.486 6  91240375.814 6  21945072.489    21945071.315    21945077.454
        40.000          36.000
 121772317.274 6  94887537.76146  23172494.507    23172493.921    23172498.640
        41.000          38.0004
 129791228.137 6 101136037.32542  24698449.045    24698448.334    24698451.591
        36.000          17.0004
 117431153.383 5  91335367.994 6  21952513.730    21952512.504    21952517.927
        35.000          38.000
 22  1  4  9 15 30.0000000  0 17R09G16G09G04R08G07G27G05R17R18G20G08
                                R10R01G30G18R19
 104775745.740 8  81492279.561 8  19621130.248    19621130.484    19621132.768
        52.000          48.000
 117173774.174 7  91304253.59245  22297427.723    22297426.704    22297428.209
        44.000          30.0004
 112429306.573 8  87607265.23548  21394585.612    21394585.142    21394588.592
        49.000          48.0004
 122091412.613 6  95136176.44643  23233225.088    23233225.657    23233229.484
        40.000          22.0004
 109291076.978 7  85004199.483 7  20409335.965    20409336.495    20409339.046
        46.000          45.000
 111414005.144 8  86816131.43748  21201378.646    21201378.295    21201379.061
        49.000          49.0004
 111794945.539 8  87112964.04948  21273866.502    21273866.186    21273869.977
        48.000          48.0004
 127898855.877 6  99661461.39643  24338342.188    24338341.535    24338343.665
        37.000          19.0004
 128591687.697 6 100015790.788 5  24030429.918    24030429.942    24030433.075
        36.000          35.000
 116023792.876 7  90240764.545 7  21735161.900    21735161.252    21735165.672
        46.000          42.000
 126592748.460 6  98643707.55642  24089796.231    24089794.908    24089798.890
        36.000          17.0004
 114678734.091 7  89360078.81147  21822633.119    21822632.619    21822637.464
        46.000          44.0004
 107081837.538 8  83285901.708 3  20088276.181    20088275.978    20088256.596
        51.000          20.000
 117227555.103 6  91177027.102 5  21929834.867    21929835.121    21929840.347
        41.000          35.000
 121678988.663 7  94814814.23746  23154734.865    23154734.221    23154738.829
        42.000          39.0004
 129788034.663 5 101133548.92542  24697838.917    24697839.033    24697844.037
        33.000          17.0004
 117343459.380 5  91267161.559 6  21936118.838    21936118.663    21936124.387
        35.000          39.000
 22  1  4  9 16  0.0000000  0 17R09G16G09G04R08G07G27G05R17R18G20G08
                                R10R01G30G18R19
 104815252.304 8  81523006.896 8  19628528.873    19628528.988    19628531.182
        53.000          50.000
 117265131.129 7  91375440.83245  22314811.698    22314811.118    22314812.780
        43.000          30.0004
 112489887.871 8  87654471.43648  21406113.827    21406113.402    21406116.793
        49.000          49.0004
 122198154.921 6  95219352.24143  23253538.467    23253537.325    23253541.383
        40.000          22.0004
 109317943.507 7  85025095.675 7  20414353.014    20414353.567    20414356.481
        46.000          46.000
 111357301.730 8  86771946.97548  21190588.145    21190588.002    21190588.746
        49.000          49.0004
 111781345.529 8  87102366.64148  21271278.551    21271278.192    21271281.958
        48.000          48.0004
 127876695.516 6  99644193.57843  24334125.760    24334124.473    24334126.582
        36.000          19.0004
 128697063.004 5 100097749.475 5  24050120.590    24050120.349    24050124.308
        35.000          34.000
 116043069.879 7  90255757.757 7  21738772.870    21738772.141    21738777.088
        46.000          42.000
 126622764.525 6  98667096.67942  24095509.663    24095507.268    24095509.380
        37.000          16.0004
 114602847.749 7  89300946.66847  21808192.023    21808191.857    21808196.732
        46.000          44.0004
 107020762.033 8  83238398.586 3  20076818.809    20076818.232    20076794.671
        51.000          20.000
 117146751.368 6  91114179.782 6  21914720.231    21914719.334    21914724.692
        41.000          36.000
 121585821.448 6  94742216.47246  23137004.915    23137004.572    23137009.708
        41.000          39.0004
 129785418.440 5 101131510.31342  24697342.581    24697342.806    24697344.901
        35.000          17.0004
 117256386.046 5  91199437.871 6  21919843.074    21919842.145    21919847.087
        35.000          39.000
 22  1  4  9 16 30.0000000  0 17R09G16G09G04R08G07G27G05R17R18G20G08
                                R10R01G30G18R19
 104855212.288 8  81554086.895 8  19636011.675    19636012.081    19636014.436
        52.000          50.000
 117356777.009 7  91446853.20244  22332251.404    22332251.157    22332252.620
        43.000          29.0004
 112550990.811 8  87702084.11748  21417741.110    21417740.983    21417744.489
        49.000          48.0004
 122305129.487 6  95302709.02343  23273894.829    23273894.205    23273897.514
        40.000          22.0004
 109345643.994 7  85046640.501 7  20419526.105    20419526.479    20419529.362
        47.000          46.000
 111300906.835 8  86728002.92048  21179857.031    21179856.439    21179857.219
        49.000          49.0004
 111768432.138 7  87092304.26048  21268820.923    21268820.801    21268824.577
        47.000          48.0004
 127855136.905 6  99627394.69243  24330023.009    24330021.651    24330024.634
        36.000          18.0004
 128802873.004 5 100180046.213 6  24069895.162    24069892.905    24069896.819
        35.000          36.000
 116063193.750 7  90271409.665 7  21742541.856    21742542.069    21742546.361
        45.000          42.000
 126653314.792 6  98690902.09542  24101322.496    24101320.047    24101323.180
        37.000          16.0004
 114527458.887 7  89242202.19247  21793846.118    21793845.690    21793850.590
        46.000          44.0004
 106960113.756 8  83191227.135 3  20065441.264    20065440.909    20065448.764
        50.000          20.000
 117066604.524 6  91051843.390 6  21899725.565    21899725.800    21899731.242
        40.000          36.000
 121492825.597 6  94669752.24846  23119308.391    23119308.341    23119312.556
        41.000          39.0004
 129783388.145 6 101129928.29043  24696957.509    24696956.059    24696960.187
        36.000          18.0004
 117169945.872 5  91132206.627 6  21903682.928    21903683.257    21903687.246
        35.000          38.000
 22  1  4  9 17  0.0000000  0 17R09G16G09G04R08G07G27G05R17R18G20G08
                                R10R01G30G18R19
 104895609.988 8  81585507.337 8  19643576.698    19643577.180    19643579.720
        52.000          49.000
 117448694.950 7  91518477.57744  22349743.057    22349742.205    22349743.719
        43.000          29.0004
 112612599.396 8  87750090.80448  21429465.191    21429464.682    21429468.335
        48.000          48.0004
 122412319.590 6  95386233.75143  23294291.406    23294292.061    23294295.842
        40.000          22.0004
 109374162.783 7  85068821.771 7  20424852.389    20424852.180    20424854.812
        46.000          47.000
 111244807.643 8  86684289.28348  21169181.131    21169181.108    21169181.872
        48.000          50.0004
 111756191.539 7  87082766.13248  21266491.893    21266491.479    21266495.152
        47.000          49.0004
 127834166.776 6  99611054.36143  24326032.732    24326032.759    24326033.969
        37.000          18.0004
 128909098.933 6 100262666.502 5  24089743.079    24089744.337    24089747.814
        36.000          35.000
 116084148.937 7  90287708.157 6  21746468.574    21746468.036    21746471.968
        46.000          41.000
 126684383.416 6  98715111.40242  24107235.114    24107232.893    24107235.634
        37.000          16.0004
 114452555.812 7  89183836.24147  21779592.021    21779592.020    21779596.955
        46.000          44.0004
 106899878.861 8  83144377.743 3  20054141.078    20054141.090    20054124.447
        50.000          20.000
 116987103.790 6  90990009.524 6  21884853.488    21884853.374    21884859.438
        41.000          37.000
 121399988.405 7  94597411.65846  23101643.211    23101642.037    23101646.599
        42.000          39.0004
 129781929.771 6 101128791.91143  24696679.415    24696679.470    24696682.254
        37.000          19.0004
 117084128.862 5  91065460.072 6  21887640.647    21887640.007    21887644.959
        35.000          38.000
 22  1  4  9 17 30.0000000  0 16R09G16G09G04R08G07G27G05R18G20G08R10
                                R01G30G18R19
 104936443.502 8  81617266.752 8  19651223.681    19651223.931    19651226.306
        52.000          50.000
 117540882.221 7  91590311.80844  22367285.809    22367285.075    22367286.317
        44.000          29.0004
 112674711.189 8  87798489.60048  21441284.314    21441284.108    21441287.894
        48.000          48.0004
 122519722.218 6  95469924.07343  23314730.484    23314729.933    23314733.715
        40.000          23.0004
 109403497.815 7  85091637.906 7  20430329.396    20430330.279    20430333.640
        46.000          46.000
 111189004.319 8  86640806.19848  21158562.227    21158561.945    21158562.826
        48.000          49.0004
 111744623.488 8  87073752.06448  21264290.611    21264290.076    21264293.822
        48.000          48.0004
 127813784.534 6  99595172.10743  24322152.469    24322153.523    24322155.120
        36.000          19.0004
 116105933.827 7  90304651.980 6  21750548.475    21750548.701    21750553.577
        45.000          41.000
 126715968.166 6  98739722.88142  24113245.144    24113243.794    24113245.375
        37.000          16.0004
 114378140.520 7  89125850.38447  21765431.151    21765431.225    21765436.037
        46.000          44.0004
 106840057.993 8  83097850.474 3  20042918.796    20042918.824    20042926.296
        51.000          20.000
 116908251.819 6  90928680.250 6  21870103.413    21870102.306    21870108.336
        41.000          36.000
 121307310.764 6  94525195.39346  23084006.294    23084005.684    23084010.553
        41.000          39.0004
 129781043.001 6 101128100.95143  24696511.041    24696509.742    24696513.322
        36.000          18.0004
 116998938.361 5  90999200.816 6  21871714.620    21871714.441    21871719.159
        35.000          38.000
 22  1  4  9 18  0.0000000  0 16R09G16G09G04R08G07G27G05R18G20G08R10
                                R01G30G18R19
 104977719.132 8  81649370.031 8  19658953.729    19658953.669    19658955.826
        53.000          49.000
 117633343.643 7  91662359.67144  22384880.386    22384879.909    22384881.497
        43.000          29.0004
 112737331.544 8  87847284.68548  21453200.581    21453200.447    21453204.237
        49.000          48.0004
 122627342.137 6  95553783.72343  23335209.651    23335209.653    23335213.453
        40.000          22.0004
 109433655.141 7  85115093.606 7  20435961.672    20435961.964    20435964.812
        46.000          46.000
 111133505.663 8  86597560.51448  21148001.019    21148000.863    21148001.812
        48.000          49.0004
 111733735.480 7  87065267.90148  21262218.533    21262218.156    21262221.965
        47.000          48.0004
 127793998.585 6  99579754.49243  24318387.874    24318388.550    24318390.375
        36.000          19.0004
 116128554.912 7  90322246.174 7  21754787.148    21754786.900    21754791.630
        45.000          42.000
 126748074.502 6  98764740.78142  24119354.603    24119353.682    24119354.261
        36.000          16.0004
 114304222.496 7  89068252.00347  21751365.438    21751365.093    21751369.794
        46.000          44.0004
 106780659.065 8  83051651.267 3  20031775.632    20031775.647    20031770.306
        51.000          20.000
 116830059.288 6  90867863.881 6  21855475.958    21855475.520    21855480.854
        41.000          36.000
 121214801.365 6  94453110.22346  23066402.658    23066402.073    23066406.428
        41.000          39.0004
 129780735.029 6 101127861.01642  24696453.520    24696451.149    24696454.058
        36.000          17.0004
 116914385.793 5  90933437.756 6  21855907.873    21855907.863    21855913.050
        35.000          38.000
 22  1  4  9 18 30.0000000  0 16R09G16G09G04R08G07G27G05R18G20G08R10
                                R01G30G18R19
 105019443.330 8  81681822.197 8  19666767.163    19666767.193    19666769.325
        52.000          49.000
 117726084.664 7  91734625.40344  22402529.327    22402527.928    22402529.613
        43.000          29.0004
 112800466.384 8  87896480.66448  21465214.924    21465214.585    21465218.330
        48.000          48.0004
 122735184.693 6  95637816.84943  23355731.746    23355732.366    23355734.629
        41.000          22.0004
 109464641.473 7  85139194.083 7  20441747.645    20441748.444    20441751.222
        46.000          46.000
 111078320.908 8  86554559.43548  21137499.544    21137499.498    21137500.509
        49.000          49.0004
 111723535.599 8  87057319.94848  21260278.051    21260277.217    21260280.947
        48.000          48.0004
 127774816.893 6  99564807.73442  24314738.543    24314737.996    24314739.086
        36.000          17.0004
 116152018.891 7  90340495.961 7  21759183.188    21759182.431    21759186.932
        46.000          42.000
 126780709.351 6  98790170.51442  24125565.068    24125565.187    24125565.468
        37.000          17.0004
 114230812.083 7  89011049.16047  21737396.116    21737395.494    21737400.115
        46.000          44.0004
 106721690.718 8  83005786.947 3  20020713.822    20020713.301    20020721.322
        51.000          20.000
 116752537.668 6  90807569.321 6  21840973.951    21840973.300    21840977.859
        41.000          36.000
 121122469.414 6  94381163.32846  23048832.051    23048831.449    23048836.295
        41.000          39.0004
 129781013.901 5 101128078.35242  24696506.715    24696505.271    24696508.126
        35.000          16.0004
 116830483.040 5  90868180.103 6  21840222.769    21840223.416    21840228.408
        35.000          38.000
